[{"Name":"Copper Crown Furnished Apartments","City":" Khamis Mushayt","Star_Rating":"5","Type_of_room":"Deluxe Room (2 Adults + 1 Child)","Review_title":" Superb ","Longitude_x":42.8014022887,"Latitude_y":18.2427413609},{"Name":"Four Points by Sheraton Makkah Al Naseem","City":" Makkah","Star_Rating":"5","Type_of_room":"Superior Twin Room","Review_title":" Fabulous ","Longitude_x":39.874312,"Latitude_y":21.38081},{"Name":"Corp Inn Deira.","City":" Riyadh","Star_Rating":"5","Type_of_room":"Grand Room","Review_title":" Good ","Longitude_x":46.716503799,"Latitude_y":24.6343470436},{"Name":"Al Gosaibi Hotel","City":" Al Yarmouk, Al Khobar","Star_Rating":"5","Type_of_room":"Superior Twin Room","Review_title":" Very good ","Longitude_x":50.2207306,"Latitude_y":26.3069709},{"Name":"Makarem Umm Al Qura Hotel","City":" Ajyad, Makkah","Star_Rating":"5","Type_of_room":"Deluxe Twin Room","Review_title":" Good ","Longitude_x":39.8304417729,"Latitude_y":21.4026930013},{"Name":"Best Western Premier Al Ahsa Grand Hotel","City":" Al Ahsa","Star_Rating":"5","Type_of_room":"Junior Suite","Review_title":" Very good ","Longitude_x":49.5899771154,"Latitude_y":25.3460791879},{"Name":"Millennium Hail Hotel","City":" Hail","Star_Rating":"5","Type_of_room":"Deluxe Twin Room","Review_title":" Good ","Longitude_x":41.7237567902,"Latitude_y":27.6532832448},{"Name":"Radisson Blu Hotel, Riyadh","City":" Riyadh","Star_Rating":"5","Type_of_room":"Standard Room","Review_title":" Good ","Longitude_x":46.7186522484,"Latitude_y":24.6707107597},{"Name":"Shaza Riyadh","City":" Riyadh","Star_Rating":"5","Type_of_room":"Deluxe Room","Review_title":" Fabulous ","Longitude_x":46.7792256258,"Latitude_y":24.6761767132},{"Name":"Awaliv International Hotel","City":" Taif","Star_Rating":"5","Type_of_room":"Superior Room","Review_title":" Fabulous ","Longitude_x":40.4192698002,"Latitude_y":21.286952639},{"Name":"Carlton Al Moaibed Hotel","City":" Al Khobar","Star_Rating":"5","Type_of_room":"Superior Twin Room","Review_title":" Good ","Longitude_x":50.1857614517,"Latitude_y":26.3665092632},{"Name":"Radisson Blu Resort, Al Khobar Half Moon Bay","City":" Half Moon Bay","Star_Rating":"5","Type_of_room":"Standard Room","Review_title":" Good ","Longitude_x":49.992777,"Latitude_y":26.039166},{"Name":"Crowne Plaza Jeddah","City":" Al Hamra, Jeddah","Star_Rating":"5","Type_of_room":"King Leisure Room - Smoking","Review_title":" Very good ","Longitude_x":39.1555175185,"Latitude_y":21.5173711384},{"Name":"Blue inn Boutique","City":" Abha","Star_Rating":"5","Type_of_room":"Twin Room with City View","Review_title":" Good ","Longitude_x":42.5011925223,"Latitude_y":18.2143123717},{"Name":"Riyadh Marriott Hotel","City":" Riyadh","Star_Rating":"5","Type_of_room":"Guest Room, 1 King","Review_title":" Good ","Longitude_x":46.7122417688,"Latitude_y":24.6859970793},{"Name":"Warwick Al Khobar","City":" Al Khobar","Star_Rating":"5","Type_of_room":"Superior Twin Room","Review_title":" Very good ","Longitude_x":50.2206188102,"Latitude_y":26.2996120823},{"Name":"Sheraton Riyadh Hotel & Towers","City":" Al Worood, Riyadh","Star_Rating":"5","Type_of_room":"Classic Room, Guest room, 1 Queen","Review_title":" Very good ","Longitude_x":46.6651180387,"Latitude_y":24.7273572536},{"Name":"Sofitel Al Khobar The Corniche","City":" Al Khobar","Star_Rating":"5","Type_of_room":"Superior Room with 1 Queen Bed - City View","Review_title":" Very good ","Longitude_x":50.2201473713,"Latitude_y":26.2765664486},{"Name":"Gloria Inn Najran","City":" Najran","Star_Rating":"5","Type_of_room":"Twin Room with Pool View","Review_title":" Good ","Longitude_x":44.2614912987,"Latitude_y":17.5485698663},{"Name":"Somewhere Hotel Al Ahsa","City":" Al Hofuf","Star_Rating":"5","Type_of_room":"Deluxe Room King (Smoking)","Review_title":" Fabulous ","Longitude_x":49.567082914,"Latitude_y":25.4050000517},{"Name":"Novotel Jazan","City":" Jazan","Star_Rating":"5","Type_of_room":"Superior King Room with Pool View","Review_title":" Fabulous ","Longitude_x":42.541455,"Latitude_y":16.881032},{"Name":"Fraser Suites Riyadh","City":" Al Olaya, Riyadh","Star_Rating":"5","Type_of_room":"Deluxe Studio","Review_title":" Very good ","Longitude_x":46.6918113828,"Latitude_y":24.6791622459},{"Name":"Frontel Al Harithia Hotel","City":" Central Madinah, Al Madinah","Star_Rating":"5","Type_of_room":"Superior Twin Room","Review_title":" Very good ","Longitude_x":39.6088993549,"Latitude_y":24.4721455547},{"Name":"Al Rawasi Hotel Suites","City":" Al Rawda, Jeddah","Star_Rating":"5","Type_of_room":"Deluxe King Studio City View  ","Review_title":" Very good ","Longitude_x":39.1500329372,"Latitude_y":21.5680998252},{"Name":"InterContinental Riyadh","City":" Riyadh","Star_Rating":"5","Type_of_room":"Standard Room","Review_title":" Very good ","Longitude_x":46.6912615299,"Latitude_y":24.6665476427},{"Name":"voco - Riyadh","City":" Riyadh","Star_Rating":"5","Type_of_room":"Superior Twin Room - Smoking","Review_title":" Very good ","Longitude_x":46.696358,"Latitude_y":24.666184},{"Name":"Le Meridien Al Khobar","City":" Al Khobar","Star_Rating":"5","Type_of_room":"Deluxe Room Twin, Guest room, 2 Twin\/Single Bed(s), Sea view","Review_title":" Fabulous ","Longitude_x":50.223634243,"Latitude_y":26.301677261},{"Name":"Crowne Plaza Riyadh - RDC Hotel & Convention","City":" Riyadh","Star_Rating":"5","Type_of_room":"Deluxe Room with Two Beds - Smoking","Review_title":" Fabulous ","Longitude_x":46.639589,"Latitude_y":24.742907},{"Name":"Le Meridien Jeddah","City":" Al Rawda, Jeddah","Star_Rating":"5","Type_of_room":"Standard Room Twin, Guest room,  Twin\/Single Bed(s)","Review_title":" Very good ","Longitude_x":39.171962142,"Latitude_y":21.5589863827},{"Name":"Alreem Village Hotel","City":" Al Jubail","Star_Rating":"5","Type_of_room":"Standard Double Room","Review_title":" Fabulous ","Longitude_x":49.6351307631,"Latitude_y":26.9946494955},{"Name":"The Venue Jeddah Corniche","City":" Al Shatiea, Jeddah","Star_Rating":"5","Type_of_room":"Classic King Room with City View City Tower","Review_title":" Good ","Longitude_x":39.1082596779,"Latitude_y":21.6018266298},{"Name":"Durrat Al Riyadh Resort & Spa","City":" Riyadh","Star_Rating":"5","Type_of_room":"Superior King with Balcony City View","Review_title":" Good ","Longitude_x":46.5108733188,"Latitude_y":25.0011022311},{"Name":"Kempinski Al Othman Hotel Al Khobar","City":" Al Khobar","Star_Rating":"5","Type_of_room":"Deluxe King Room","Review_title":" Very good ","Longitude_x":50.1781771236,"Latitude_y":26.3671325453},{"Name":"Abha Palace Hotel","City":" Abha","Star_Rating":"5","Type_of_room":"Superior Double Room with Mountain View","Review_title":" Good ","Longitude_x":42.4830043316,"Latitude_y":18.2101898283},{"Name":"Sheraton Jeddah Hotel","City":" Al Shatiea, Jeddah","Star_Rating":"5","Type_of_room":"Standard Room, Guest room, Queen, City view, Side Wing","Review_title":" Good ","Longitude_x":39.1080370545,"Latitude_y":21.6143750049},{"Name":"Sunset Beach Resort Marina & Spa","City":" Al Khobar","Star_Rating":"5","Type_of_room":"Deluxe Double Room - Beach Front","Review_title":" Good ","Longitude_x":50.192259,"Latitude_y":26.157037},{"Name":"Makarem Ajyad Makkah Hotel","City":" Ajyad, Makkah","Star_Rating":"5","Type_of_room":"Standard King Room","Review_title":" Good ","Longitude_x":39.8282584548,"Latitude_y":21.4170601671},{"Name":"Bayat Hotel By Cristal","City":" Khamis Mushayt","Star_Rating":"5","Type_of_room":"Ruby","Review_title":" Very good ","Longitude_x":42.7259266376,"Latitude_y":18.2877222},{"Name":"Sheraton Makkah Jabal Al Kaaba Hotel","City":" Makkah","Star_Rating":"5","Type_of_room":"Traditional King City Vie, Guest room, 1 King, City view","Review_title":" Good ","Longitude_x":39.819497,"Latitude_y":21.426273},{"Name":"Radisson Blu Hotel & Residence, Riyadh Diplomatic Quarter","City":" Diplomatic Quarter, Riyadh","Star_Rating":"5","Type_of_room":"Standard Room","Review_title":" Fabulous ","Longitude_x":46.625375,"Latitude_y":24.68442},{"Name":"Marriott Riyadh Diplomatic Quarter","City":" Diplomatic Quarter, Riyadh","Star_Rating":"5","Type_of_room":"Deluxe Room, Guest room, 2 Double","Review_title":" Fabulous ","Longitude_x":46.623472,"Latitude_y":24.674269},{"Name":"Casablanca Grand Hotel","City":" Jeddah","Star_Rating":"5","Type_of_room":"Twin Room","Review_title":" Fabulous ","Longitude_x":39.1508102417,"Latitude_y":21.6325372978},{"Name":"Al Shohada Hotel","City":" Ajyad, Makkah","Star_Rating":"5","Type_of_room":"Twin Room","Review_title":" Good ","Longitude_x":39.82788831,"Latitude_y":21.4147891327},{"Name":"Riyadh Diplomatic Quarter - Marriott Executive Apartments","City":" Diplomatic Quarter, Riyadh","Star_Rating":"5","Type_of_room":"1 Bedroom Apartment, 1 King","Review_title":" Fabulous ","Longitude_x":46.623472,"Latitude_y":24.674269},{"Name":"Hilton Makkah Convention Hotel","City":" Makkah","Star_Rating":"5","Type_of_room":"Twin Guest Room","Review_title":" Very good ","Longitude_x":39.820047,"Latitude_y":21.423},{"Name":"Le Meridien Makkah","City":" Ajyad, Makkah","Star_Rating":"5","Type_of_room":"Classic Guest Room, Guest room, 1 Queen, City view","Review_title":" Good ","Longitude_x":39.8290792108,"Latitude_y":21.4203274482},{"Name":"Elaf Al Mashaer Hotel Makkah","City":" Ajyad, Makkah","Star_Rating":"5","Type_of_room":"Queen Room","Review_title":" Good ","Longitude_x":39.8279567063,"Latitude_y":21.4166294349},{"Name":"Hilton Suites Makkah","City":" Makkah","Star_Rating":"5","Type_of_room":"Twin Room City View","Review_title":" Fabulous ","Longitude_x":39.8216100186,"Latitude_y":21.4213264284},{"Name":"Conrad Makkah","City":" Makkah","Star_Rating":"5","Type_of_room":"Superior Queen Room with Two Queen Beds","Review_title":" Fabulous ","Longitude_x":39.8217455681,"Latitude_y":21.4191913937},{"Name":"Burj Rafal Hotel Riyadh","City":" Riyadh","Star_Rating":"5","Type_of_room":"Deluxe Room","Review_title":" Very good ","Longitude_x":46.6319666952,"Latitude_y":24.7921691812},{"Name":"Narcissus Resort & Spa Obhur Jeddah","City":" North Obhr, Jeddah","Star_Rating":"5","Type_of_room":"Junior Villa","Review_title":" Very good ","Longitude_x":39.0795493126,"Latitude_y":21.7221483555},{"Name":"Shaza Makkah","City":" Makkah","Star_Rating":"5","Type_of_room":"Deluxe King Room with Partial Haram View ","Review_title":" Very good ","Longitude_x":39.8195709606,"Latitude_y":21.4257050496},{"Name":"Four Seasons Hotel Riyadh","City":" Al Olaya, Riyadh","Star_Rating":"5","Type_of_room":"Premium Room King Bed","Review_title":" Fabulous ","Longitude_x":46.6756430268,"Latitude_y":24.7119151948},{"Name":"Al Marwa Rayhaan by Rotana - Makkah","City":" Ajyad, Makkah","Star_Rating":"5","Type_of_room":"Classic King Room with City View","Review_title":" Good ","Longitude_x":39.8255909979,"Latitude_y":21.4196507762},{"Name":"Al Safwah Royale Orchid Hotel","City":" Ajyad, Makkah","Star_Rating":"5","Type_of_room":"Standard Double Room","Review_title":" Very good ","Longitude_x":39.8265887797,"Latitude_y":21.4196732488},{"Name":"Al Ghufran Safwah Hotel Makkah","City":" Ajyad, Makkah","Star_Rating":"5","Type_of_room":"Superior Double Room","Review_title":" Fabulous ","Longitude_x":39.8266102374,"Latitude_y":21.4196982183},{"Name":"Swissotel Al Maqam Makkah","City":" Ajyad, Makkah","Star_Rating":"5","Type_of_room":"Classic Twin Room with City View","Review_title":" Very good ","Longitude_x":39.8253214359,"Latitude_y":21.4201876196},{"Name":"Dar Al Taqwa Hotel","City":" Central Madinah, Al Madinah","Star_Rating":"5","Type_of_room":"Standard King Bed Room Haram View","Review_title":" Very good ","Longitude_x":39.6115118265,"Latitude_y":24.4714424737},{"Name":"Jeddah Hilton","City":" Al Shatiea, Jeddah","Star_Rating":"5","Type_of_room":"Deluxe Twin Room with Partial Sea View","Review_title":" Very good ","Longitude_x":39.1088443995,"Latitude_y":21.6035972336},{"Name":"Makkah Clock Royal Tower, A Fairmont Hotel","City":" Ajyad, Makkah","Star_Rating":"5","Type_of_room":"Fairmont Room Twin City View","Review_title":" Very good ","Longitude_x":39.8255829513,"Latitude_y":21.4196957213},{"Name":"Braira Hettin Resort & Villas","City":" Riyadh","Star_Rating":"5","Type_of_room":"Two-Bedroom Villa","Review_title":" Fabulous ","Longitude_x":46.586750916,"Latitude_y":24.7544207432},{"Name":"Makkah Towers","City":" Makkah","Star_Rating":"5","Type_of_room":"2 Single Deluxe Partial Haram View","Review_title":" Good ","Longitude_x":39.823988378,"Latitude_y":21.4202625278},{"Name":"Le Meridien Towers Makkah","City":" Makkah","Star_Rating":"5","Type_of_room":"Executive Suite, 1 Bedroom Executive Suite, Mountain view","Review_title":" Good ","Longitude_x":39.8268811405,"Latitude_y":21.4023558734},{"Name":"Makkah Hotel","City":" Makkah","Star_Rating":"5","Type_of_room":"1 King Guestroom","Review_title":" Fabulous ","Longitude_x":39.8240312934,"Latitude_y":21.4202375584},{"Name":"Park Hyatt Jeddah - Marina, Club and Spa","City":" Jeddah","Star_Rating":"5","Type_of_room":"King Room","Review_title":" Very good ","Longitude_x":39.1549783945,"Latitude_y":21.5139076537},{"Name":"Assila, a Luxury Collection Hotel, Jeddah","City":" Al Andalus, Jeddah","Star_Rating":"5","Type_of_room":"Deluxe Guest Room, 1 King, City View","Review_title":" Superb ","Longitude_x":39.1624937218,"Latitude_y":21.5519304162},{"Name":"Rosewood Jeddah","City":" Al Shatiea, Jeddah","Star_Rating":"5","Type_of_room":"Superior Double Room","Review_title":" Fabulous ","Longitude_x":39.1105046868,"Latitude_y":21.576367442},{"Name":"Shaza Al Madina","City":" Central Madinah, Al Madinah","Star_Rating":"5","Type_of_room":"Family Suite","Review_title":" Very good ","Longitude_x":39.6114313602,"Latitude_y":24.4720552286},{"Name":"Dar Al Tawhid Intercontinental Makkah","City":" Makkah","Star_Rating":"5","Type_of_room":"Standard Room","Review_title":" Fabulous ","Longitude_x":39.8224434257,"Latitude_y":21.4206220867},{"Name":"Dana Beach Resort (Families Only)","City":" Half Moon Bay","Star_Rating":"5","Type_of_room":"Two-Bedroom Sunset Villa with Sea View","Review_title":" Very good ","Longitude_x":50.0119328499,"Latitude_y":26.0793490548},{"Name":"Raffles Makkah Palace","City":" Ajyad, Makkah","Star_Rating":"5","Type_of_room":"Signature Suite City View","Review_title":" Superb ","Longitude_x":39.8255655169,"Latitude_y":21.4196432854},{"Name":"Almakan Hotel 108","City":" Riyadh","Star_Rating":"4","Type_of_room":"Studio","Review_title":" Good ","Longitude_x":46.6932141781,"Latitude_y":24.6395766404},{"Name":"Samaya Royal Afif","City":" \u2018Af\u012bf","Star_Rating":"4","Type_of_room":"Superior Apartment","Review_title":" Very good ","Longitude_x":42.8988066,"Latitude_y":23.8837809},{"Name":"Al Reef Homes Hotel","City":" Abha","Star_Rating":"4","Type_of_room":"Deluxe Studio","Review_title":" Good ","Longitude_x":42.6027227909,"Latitude_y":18.1875489965},{"Name":"Hotel nab'a Alsafa Almansour","City":" Makkah","Star_Rating":"4","Type_of_room":"Deluxe Double or Twin Room","Review_title":" Good ","Longitude_x":39.8071186984,"Latitude_y":21.4261281075},{"Name":"Jeddah Blue Plus Hotel","City":" Al Hamra, Jeddah","Star_Rating":"4","Type_of_room":"Studio Apartment","Review_title":" Good ","Longitude_x":39.1593226405,"Latitude_y":21.5202021422},{"Name":"New Suite","City":" Riyadh","Star_Rating":"4","Type_of_room":"Deluxe Room (1 adult + 2 children)","Review_title":" Good ","Longitude_x":46.6694089141,"Latitude_y":24.5512422719},{"Name":"Seher Aloyon Funished Apartments","City":" Buraydah","Star_Rating":"0","Type_of_room":"One-Bedroom Apartment","Review_title":" Fabulous ","Longitude_x":43.9330190979,"Latitude_y":26.3991633775},{"Name":"JEDDAH PALACE","City":" Jeddah","Star_Rating":"4","Type_of_room":"Deluxe King Room","Review_title":" Good ","Longitude_x":39.25855,"Latitude_y":21.485787},{"Name":"Reef Global Hotel","City":" Makkah","Star_Rating":"4","Type_of_room":"Double Room","Review_title":" Very good ","Longitude_x":39.8605240881,"Latitude_y":21.4449516813},{"Name":"Golden Tulip Dammam Corniche Hotel","City":" Dammam","Star_Rating":"4","Type_of_room":"Business King Room","Review_title":" Good ","Longitude_x":50.0964151475,"Latitude_y":26.4577408807},{"Name":"Sofi Hotel","City":" Dammam","Star_Rating":"4","Type_of_room":"Double Studio","Review_title":" Good ","Longitude_x":50.0634527206,"Latitude_y":26.4637779483},{"Name":"Odst Hotel Suites","City":" Sari Street, Jeddah","Star_Rating":"4","Type_of_room":"Studio Apartment","Review_title":" Good ","Longitude_x":39.1733672336,"Latitude_y":21.5837204766},{"Name":"Retaj Al Rayyan Makkah","City":" Makkah","Star_Rating":"4","Type_of_room":"Standard Twin Room","Review_title":" Good ","Longitude_x":39.8513517715,"Latitude_y":21.4313363491},{"Name":"Golden Dune Hotel","City":" \u0162urayf","Star_Rating":"4","Type_of_room":"Small Double Room","Review_title":" Superb ","Longitude_x":38.6596888771,"Latitude_y":31.6723575545},{"Name":"Suite Inn Hotel Riyadh","City":" Al Sulimania, Riyadh","Star_Rating":"4","Type_of_room":"Standard Apartment","Review_title":" Very good ","Longitude_x":46.711088419,"Latitude_y":24.6940562511},{"Name":"Business Tower","City":" Nimr\u0101n","Star_Rating":"4","Type_of_room":"Economy Double Room","Review_title":" Very good ","Longitude_x":42.6152528724,"Latitude_y":19.9975106886},{"Name":"Sadeem Al Fajr Hotel Suites","City":" Taif","Star_Rating":"4","Type_of_room":"One-Bedroom Apartment","Review_title":" Good ","Longitude_x":40.4161270112,"Latitude_y":21.2883042901},{"Name":"Naviti Warwick Dammam","City":" Dammam","Star_Rating":"4","Type_of_room":"Standard Double Room","Review_title":" Very good ","Longitude_x":50.0936674887,"Latitude_y":26.4592418466},{"Name":"AlBaha Palace Furnished Apartment","City":" Al Baha","Star_Rating":"4","Type_of_room":"Double Room","Review_title":" Good ","Longitude_x":41.4726524763,"Latitude_y":20.0181546235},{"Name":"Hayat Al Riyadh Hotel","City":" Riyadh","Star_Rating":"4","Type_of_room":"Deluxe Double or Twin Room","Review_title":" Very good ","Longitude_x":46.7094564087,"Latitude_y":24.6600974187},{"Name":"Sumou Al Khobar Hotel","City":" Al Khobar","Star_Rating":"4","Type_of_room":"Standard King Room","Review_title":" Very good ","Longitude_x":50.2159765363,"Latitude_y":26.2713402328},{"Name":"Address Sharurah Hotel","City":" Sharurah","Star_Rating":"4","Type_of_room":"Standard Double Room","Review_title":" Very good ","Longitude_x":47.100416,"Latitude_y":17.494336},{"Name":"Dammam Palace Hotel","City":" Dammam","Star_Rating":"4","Type_of_room":"Standard Twin Room","Review_title":" Very good ","Longitude_x":50.1036603749,"Latitude_y":26.4288274046},{"Name":"Best Western Plus Buraidah","City":" Buraydah","Star_Rating":"4","Type_of_room":"Grand Non-smoking 1 King Bed Room","Review_title":" Good ","Longitude_x":43.9301865175,"Latitude_y":26.3629386791},{"Name":"Al Muhaidab Residence Al Ahsa","City":" Al Ahsa","Star_Rating":"4","Type_of_room":"Deluxe Double Room (2 Adults + 1 Child)","Review_title":" Very good ","Longitude_x":49.5541567588,"Latitude_y":25.3620676203},{"Name":"Gulanar Hotel","City":" Unayzah","Star_Rating":"4","Type_of_room":"Standard Double Room","Review_title":" Fabulous ","Longitude_x":43.9985034653,"Latitude_y":26.092805518},{"Name":"Intour Al Khafji Hotel","City":" Al Khafji","Star_Rating":"4","Type_of_room":"Standard  Room","Review_title":" Very good ","Longitude_x":48.4861287475,"Latitude_y":28.4613769309},{"Name":"Lahoya Hotel & Suites","City":" Al Shatiea, Jeddah","Star_Rating":"4","Type_of_room":"Standard Double Room","Review_title":" Good ","Longitude_x":39.1164089205,"Latitude_y":21.6050710128},{"Name":"SEVEN PALACES HOTEL","City":" Hafr Al Baten","Star_Rating":"4","Type_of_room":"Budget Double Room","Review_title":" Superb ","Longitude_x":45.9747283327,"Latitude_y":28.4280740209},{"Name":"Ofoq Al Raha Hotel Apartment","City":" Taif","Star_Rating":"4","Type_of_room":"One-Bedroom Apartment","Review_title":" Fabulous ","Longitude_x":40.4346777499,"Latitude_y":21.3259689122},{"Name":"Oasis Najran Hotel","City":" Najran","Star_Rating":"4","Type_of_room":"Twin Room","Review_title":" Fabulous ","Longitude_x":44.2341183745,"Latitude_y":17.5570695887},{"Name":"Novotel Suites Riyadh Dyar","City":" Al Olaya, Riyadh","Star_Rating":"4","Type_of_room":"Standard Queen Room","Review_title":" Good ","Longitude_x":46.676333,"Latitude_y":24.70737},{"Name":"Al Rashid Residence","City":" Al Olayya, Al Khobar","Star_Rating":"4","Type_of_room":"Studio","Review_title":" Very good ","Longitude_x":50.1803272659,"Latitude_y":26.2933380348},{"Name":"Il Villaggio Luxury Villas","City":" King Abdul Aziz Road, Jeddah","Star_Rating":"0","Type_of_room":"Apartment in The Roof (2 Adults + 1 Child)","Review_title":" Very good ","Longitude_x":39.1284137964,"Latitude_y":21.5514589993},{"Name":"Velvet Hotel","City":" Jeddah","Star_Rating":"4","Type_of_room":"Deluxe Twin Room","Review_title":" Very good ","Longitude_x":39.1880061105,"Latitude_y":21.5530084371},{"Name":"Le Park Concord Hotel","City":" Al Majmaah","Star_Rating":"4","Type_of_room":"Deluxe Room","Review_title":" Very good ","Longitude_x":45.3509380591,"Latitude_y":25.8959237624},{"Name":"Tripper Inn","City":" Dammam","Star_Rating":"4","Type_of_room":"Deluxe King Suite","Review_title":" Superb ","Longitude_x":50.128259799,"Latitude_y":26.485212197},{"Name":"Radisson Blu Residence, Dhahran","City":" Al Olayya, Al Khobar","Star_Rating":"4","Type_of_room":"Standard Room","Review_title":" Very good ","Longitude_x":50.17431,"Latitude_y":26.303864},{"Name":"Executives Hotel - Olaya","City":" Al Olaya, Riyadh","Star_Rating":"4","Type_of_room":"Standard King Room","Review_title":" Very good ","Longitude_x":46.6780006886,"Latitude_y":24.7086866901},{"Name":"Grand Mayral Hotel","City":" Al Olayya, Al Khobar","Star_Rating":"4","Type_of_room":"Studio","Review_title":" Very good ","Longitude_x":50.1826500893,"Latitude_y":26.2910872308},{"Name":"Golden Night Hotel","City":" Najran","Star_Rating":"4","Type_of_room":"Superior King Room","Review_title":" Superb ","Longitude_x":44.2419302586,"Latitude_y":17.5536974596},{"Name":"One to One Grand Marbia","City":" Al Khobar","Star_Rating":"4","Type_of_room":"Deluxe Room","Review_title":" Very good ","Longitude_x":50.2167785168,"Latitude_y":26.2916745892},{"Name":"Meda Furnished Apartments","City":" Riyadh","Star_Rating":"0","Type_of_room":"One-Bedroom Apartment","Review_title":" Very good ","Longitude_x":46.6893728147,"Latitude_y":24.8295709978},{"Name":"Intour Al Sahafa Hotel","City":" Riyadh","Star_Rating":"4","Type_of_room":"Economy Double Room","Review_title":" Good ","Longitude_x":46.6453608871,"Latitude_y":24.816870533},{"Name":"Noon Hotel Suites","City":" Al Khafji","Star_Rating":"4","Type_of_room":"Standard Studio","Review_title":" Fabulous ","Longitude_x":48.4948030114,"Latitude_y":28.4378859509},{"Name":"Crown Tower Hotel","City":" Al Jubail","Star_Rating":"4","Type_of_room":"Double or Twin Bed with Sea View Room","Review_title":" Very good ","Longitude_x":49.6648576856,"Latitude_y":26.9810771786},{"Name":"Centro Olaya by Rotana","City":" Al Olaya, Riyadh","Star_Rating":"4","Type_of_room":"Queen Room","Review_title":" Very good ","Longitude_x":46.684109073,"Latitude_y":24.6930997471},{"Name":"Pinetree Suites Hail","City":" Hail","Star_Rating":"4","Type_of_room":"Standard Suite","Review_title":" Very good ","Longitude_x":41.6907301171,"Latitude_y":27.5581317445},{"Name":"Zara Continental Hotel","City":" Al Olayya, Al Khobar","Star_Rating":"4","Type_of_room":"Junior Suite","Review_title":" Very good ","Longitude_x":50.1746323076,"Latitude_y":26.3054402881},{"Name":"Seasons Park Hotel","City":" Hera Street, Jeddah","Star_Rating":"4","Type_of_room":"Queen Room","Review_title":" Fabulous ","Longitude_x":39.2084162024,"Latitude_y":21.6238633647},{"Name":"Crowne Plaza Riyadh Palace","City":" Riyadh","Star_Rating":"4","Type_of_room":"Deluxe Twin Room - Non-Smoking","Review_title":" Good ","Longitude_x":46.7113137245,"Latitude_y":24.6645976572},{"Name":"Holiday Inn Riyadh Al Qasr","City":" Al Olaya, Riyadh","Star_Rating":"4","Type_of_room":"Standard Twin Room - Smoking","Review_title":" Good ","Longitude_x":46.6878926754,"Latitude_y":24.6838962963},{"Name":"Park Inn by Radisson Jubail Industrial City","City":" Al Jubail","Star_Rating":"4","Type_of_room":"Standard Room","Review_title":" Very good ","Longitude_x":49.527114,"Latitude_y":27.174946},{"Name":"Radisson Blu Hotel, Dhahran","City":" Al Olayya, Al Khobar","Star_Rating":"4","Type_of_room":"Standard Room","Review_title":" Good ","Longitude_x":50.1775338231,"Latitude_y":26.3058414224},{"Name":"Centro Salama Jeddah by Rotana","City":" Al Salamah, Jeddah","Star_Rating":"4","Type_of_room":"Queen Room","Review_title":" Very good ","Longitude_x":39.1635336957,"Latitude_y":21.5853352224},{"Name":"Bram Suites","City":" Jeddah","Star_Rating":"4","Type_of_room":"Studio","Review_title":" Fabulous ","Longitude_x":39.2064954365,"Latitude_y":21.5858276922},{"Name":"Olian Hotel","City":" Riyadh","Star_Rating":"4","Type_of_room":"Deluxe Double Room","Review_title":" Good ","Longitude_x":46.6570781105,"Latitude_y":24.8053043492},{"Name":"Lotus Hotel","City":" Najran","Star_Rating":"4","Type_of_room":"Double Room","Review_title":" Superb ","Longitude_x":44.2304017897,"Latitude_y":17.5588119129},{"Name":"Aswar Boutique Hotel","City":" Al Olayya, Al Khobar","Star_Rating":"4","Type_of_room":"Deluxe Room Twin ","Review_title":" Very good ","Longitude_x":50.1750889421,"Latitude_y":26.3061015103},{"Name":"Al Hamra Palace By Warwick","City":" Riyadh","Star_Rating":"4","Type_of_room":"Deluxe Room","Review_title":" Good ","Longitude_x":46.6691359878,"Latitude_y":24.7303270354},{"Name":"Le Meridien Medina","City":" Al Madinah","Star_Rating":"4","Type_of_room":"Standard two single bed, Guest room","Review_title":" Good ","Longitude_x":39.5638757944,"Latitude_y":24.4889597393},{"Name":"Grand Plaza Dhabab Hotel","City":" Riyadh","Star_Rating":"4","Type_of_room":"Standard Queen Room","Review_title":" Good ","Longitude_x":46.705852747,"Latitude_y":24.6638447719},{"Name":"Coral Jubail Hotel","City":" Al Jubail","Star_Rating":"4","Type_of_room":"Standard Double Room","Review_title":" Good ","Longitude_x":49.6417450905,"Latitude_y":27.0226744862},{"Name":"Centro Corniche Al Khobar by Rotana","City":" Al Khobar","Star_Rating":"4","Type_of_room":"Twin Room","Review_title":" Good ","Longitude_x":50.220506,"Latitude_y":26.291804},{"Name":"Green Leaf Hotel","City":" Qurish Street, Jeddah","Star_Rating":"4","Type_of_room":"Duplex Studio","Review_title":" Good ","Longitude_x":39.1657488048,"Latitude_y":21.5991402116},{"Name":"Gold Inn Hotel","City":" Riyadh","Star_Rating":"4","Type_of_room":"One-Bedroom Suite","Review_title":" Very good ","Longitude_x":46.797069414,"Latitude_y":24.8172639301},{"Name":"DAR AL MISFALAH 2","City":" Makkah","Star_Rating":"4","Type_of_room":"Executive Queen Room with Two Queen Beds","Review_title":" Good ","Longitude_x":39.807772,"Latitude_y":21.386609},{"Name":"DoubleTree by Hilton Dhahran","City":" Al Olayya, Al Khobar","Star_Rating":"4","Type_of_room":"Queen Guest Room","Review_title":" Good ","Longitude_x":50.1746302843,"Latitude_y":26.3041394727},{"Name":"Crown Town Hotel","City":" Jeddah","Star_Rating":"4","Type_of_room":"Budget Double Room","Review_title":" Very good ","Longitude_x":39.1659244895,"Latitude_y":21.5025740211},{"Name":"Holiday Khaleej Hotel","City":" Riyadh","Star_Rating":"4","Type_of_room":"Standard King Room","Review_title":" Very good ","Longitude_x":46.6972661577,"Latitude_y":24.7983684163},{"Name":"Grand Plaza Takhasosi-Riyadh","City":" Riyadh","Star_Rating":"4","Type_of_room":"Standard Double or Twin Room","Review_title":" Good ","Longitude_x":46.6777056456,"Latitude_y":24.6797263078},{"Name":"Park Inn by Radisson Al Khobar","City":" Al Khobar","Star_Rating":"4","Type_of_room":"Standard Room","Review_title":" Good ","Longitude_x":50.2110600471,"Latitude_y":26.3291818104},{"Name":"Novotel Riyadh Al Anoud","City":" Al Olaya, Riyadh","Star_Rating":"4","Type_of_room":"Superior Queen Room","Review_title":" Good ","Longitude_x":46.6752701998,"Latitude_y":24.7068299575},{"Name":"IntercityHotel Riyadh Malaz","City":" Al Malaz, Riyadh","Star_Rating":"4","Type_of_room":"Superior Twin Room","Review_title":" Very good ","Longitude_x":46.736375,"Latitude_y":24.672087},{"Name":"Wyndham Garden Dammam","City":" Dammam","Star_Rating":"4","Type_of_room":"Superior Room - Smoking","Review_title":" Very good ","Longitude_x":50.097594,"Latitude_y":26.427632},{"Name":"Gulf Terrace Hotel","City":" Al Khobar","Star_Rating":"4","Type_of_room":"Deluxe Double Room","Review_title":" Review score ","Longitude_x":50.2234840393,"Latitude_y":26.3045626601},{"Name":"Accor Palace Hotel","City":" Riyadh","Star_Rating":"4","Type_of_room":"Junior Suite","Review_title":" Good ","Longitude_x":46.6511254454,"Latitude_y":24.7886890581},{"Name":"Grand Plaza Gulf Hotel","City":" Riyadh","Star_Rating":"4","Type_of_room":"Standard Double Room","Review_title":" Very good ","Longitude_x":46.718531549,"Latitude_y":24.6847958963},{"Name":"Ramada by Wyndham Continental Jeddah","City":" Palestine  Street, Jeddah","Star_Rating":"4","Type_of_room":"1 King Bed Superior Room","Review_title":" Very good ","Longitude_x":39.181073606,"Latitude_y":21.5295450811},{"Name":"Boudl Al Tahlia","City":" Al Tahlia Street, Jeddah","Star_Rating":"4","Type_of_room":"Standard Room","Review_title":" Fabulous ","Longitude_x":39.1805195251,"Latitude_y":21.5583191932},{"Name":"Shatha Alrabi3 Hotel","City":" Riyadh","Star_Rating":"4","Type_of_room":"King Room","Review_title":" Very good ","Longitude_x":46.649477575,"Latitude_y":24.7824915958},{"Name":"Hilton Garden Inn Al Jubail","City":" Al Jubail","Star_Rating":"4","Type_of_room":"King Guest Room with Mobility Accessible","Review_title":" Very good ","Longitude_x":49.6653636527,"Latitude_y":27.0104882223},{"Name":"Golden Tulip Dana Bay Resort","City":" Half Moon Bay","Star_Rating":"4","Type_of_room":"Mahar Chalet one bedroom with Balcony","Review_title":" Review score ","Longitude_x":50.0090146065,"Latitude_y":26.083690063},{"Name":"Al Waha Palace Hotel","City":" Al Olaya, Riyadh","Star_Rating":"4","Type_of_room":"Standard Twin Room","Review_title":" Very good ","Longitude_x":46.6894832253,"Latitude_y":24.6809449045},{"Name":"Saif Boutique Hotel International","City":" Al Rass","Star_Rating":"4","Type_of_room":"Classic Twin Room","Review_title":" Good ","Longitude_x":43.4775567766,"Latitude_y":25.8638748447},{"Name":"AWJ JAZAN HOTEL SUITES","City":" Jazan","Star_Rating":"4","Type_of_room":"Standard Studio","Review_title":" Fabulous ","Longitude_x":42.605013,"Latitude_y":16.929946},{"Name":"Spectrums Hotel Riyadh","City":" Al Olaya, Riyadh","Star_Rating":"4","Type_of_room":"Deluxe King Room","Review_title":" Good ","Longitude_x":46.6783783771,"Latitude_y":24.7005288606},{"Name":"Ramada by Wyndham Al Hada","City":" Al Hada","Star_Rating":"4","Type_of_room":"1 King Bed, One-Bedroom, City View","Review_title":" Review score ","Longitude_x":40.2675265074,"Latitude_y":21.3646026305},{"Name":"Adagio Aparthotel Jeddah Malik Road","City":" King Abdul Aziz Road, Jeddah","Star_Rating":"4","Type_of_room":"Studio","Review_title":" Fabulous ","Longitude_x":39.121678013,"Latitude_y":21.6029906708},{"Name":"Classical Hotel Suites","City":" Jeddah","Star_Rating":"4","Type_of_room":"Deluxe Suite","Review_title":" Fabulous ","Longitude_x":39.1411360344,"Latitude_y":21.5969663293},{"Name":"Al Malqa Elite Hotel","City":" Riyadh","Star_Rating":"4","Type_of_room":"Deluxe Twin Room","Review_title":" Good ","Longitude_x":46.6258769551,"Latitude_y":24.8060376813},{"Name":"Novotel Dammam Business Park","City":" Dammam","Star_Rating":"4","Type_of_room":"Standard Double Room","Review_title":" Very good ","Longitude_x":50.138297081,"Latitude_y":26.4071975953},{"Name":"Swiss International Royal Hotel Riyadh","City":" Riyadh","Star_Rating":"4","Type_of_room":"Classic Room","Review_title":" Very good ","Longitude_x":46.6254458807,"Latitude_y":24.8052939},{"Name":"Crown Rose Hotel","City":" Riyadh","Star_Rating":"4","Type_of_room":"Superior King Room","Review_title":" Review score ","Longitude_x":46.627282979,"Latitude_y":24.8065216641},{"Name":"Al Maali Hotel Jazan","City":" Jazan","Star_Rating":"4","Type_of_room":"Deluxe Double Room","Review_title":" Fabulous ","Longitude_x":42.5534145298,"Latitude_y":16.917900745},{"Name":"Citadines Al Salamah Jeddah","City":" Al Salamah, Jeddah","Star_Rating":"4","Type_of_room":"Deluxe Studio","Review_title":" Very good ","Longitude_x":39.1452679374,"Latitude_y":21.5969972076},{"Name":"Makeen Homes by Warwick Hotel","City":" Riyadh","Star_Rating":"4","Type_of_room":"Junior Suite","Review_title":" Very good ","Longitude_x":46.5570988677,"Latitude_y":24.6485538145},{"Name":"Courtyard Riyadh by Marriott Diplomatic Quarter","City":" Riyadh","Star_Rating":"4","Type_of_room":"Guest room, 2 Double","Review_title":" Very good ","Longitude_x":46.6234043241,"Latitude_y":24.6658822136},{"Name":"Rfaya Hotel","City":" Jazan","Star_Rating":"4","Type_of_room":"Standard Studio","Review_title":" Very good ","Longitude_x":42.5459928651,"Latitude_y":16.8990445274},{"Name":"Salsabil Hotel by Warwick Al Naseem","City":" Jeddah","Star_Rating":"4","Type_of_room":"Superior Double or Twin Room","Review_title":" Very good ","Longitude_x":39.236988918,"Latitude_y":21.5103268031},{"Name":"Ascott Corniche Al Khobar","City":" Al Yarmouk, Al Khobar","Star_Rating":"0","Type_of_room":"Studio Premier","Review_title":" Fabulous ","Longitude_x":50.2232395042,"Latitude_y":26.3116550112},{"Name":"Novotel Jeddah Tahlia","City":" Al Andalus, Jeddah","Star_Rating":"4","Type_of_room":"Superior Room With 2 Single Beds And 1 Sofa","Review_title":" Very good ","Longitude_x":39.1723296367,"Latitude_y":21.5548877409},{"Name":"Prime Hotel - Jeddah, Al Hamra","City":" Al Hamra, Jeddah","Star_Rating":"4","Type_of_room":"Deluxe Double or Twin Room","Review_title":" Fabulous ","Longitude_x":39.1595713067,"Latitude_y":21.5153394531},{"Name":"Goldish Hotel","City":" Al Khobar","Star_Rating":"4","Type_of_room":"Junior Suite with Balcony","Review_title":" Good ","Longitude_x":50.1726440979,"Latitude_y":26.3708144269},{"Name":"Chalet Toot","City":" As Sayl a\u015f \u015eagh\u012br","Star_Rating":"0","Type_of_room":"Three-Bedroom Apartment","Review_title":" Very good ","Longitude_x":40.4971413955,"Latitude_y":21.5359201658},{"Name":"Garden Plaza Hotel","City":" Al Hofuf","Star_Rating":"4","Type_of_room":"Deluxe King Room","Review_title":" Fabulous ","Longitude_x":49.5810305973,"Latitude_y":25.3884944534},{"Name":"Cristal Amaken Hotel Riyadh","City":" Riyadh","Star_Rating":"4","Type_of_room":"Twin Room","Review_title":" Fabulous ","Longitude_x":46.8934480874,"Latitude_y":24.5589807233},{"Name":"Grand Park Hotel","City":" Al Salamah, Jeddah","Star_Rating":"4","Type_of_room":"Standard Double Room","Review_title":" Good ","Longitude_x":39.1580066085,"Latitude_y":21.5967918245},{"Name":"Ramada Al Qassim Hotel & Suites, Bukayriah","City":" Al Bukayriyah","Star_Rating":"4","Type_of_room":"Double Room - Mobility Access\/Smoking","Review_title":" Good ","Longitude_x":43.653434515,"Latitude_y":26.1523225512},{"Name":"Mabaat homes - luxury Villas near obhour beach, perfect location","City":" King Abdul Aziz Road, Jeddah","Star_Rating":"0","Type_of_room":"Villa","Review_title":" Exceptional ","Longitude_x":39.1083620421,"Latitude_y":21.7030785615},{"Name":"Casablanca Hotel Jeddah","City":" Al Salamah, Jeddah","Star_Rating":"4","Type_of_room":"Double or Twin Room","Review_title":" Review score ","Longitude_x":39.1616785526,"Latitude_y":21.5852791657},{"Name":"Ascott Sari Jeddah","City":" Sari Street, Jeddah","Star_Rating":"4","Type_of_room":"Executive Studio","Review_title":" Very good ","Longitude_x":39.1324373247,"Latitude_y":21.572520441},{"Name":"Le Park Concord Rabwah Boutique Hotel","City":" Al Olaya, Riyadh","Star_Rating":"4","Type_of_room":"Deluxe Room","Review_title":" Good ","Longitude_x":46.697098,"Latitude_y":24.678411},{"Name":"Braira Al Nakheel Hotel","City":" Riyadh","Star_Rating":"4","Type_of_room":"Superior Twin Room","Review_title":" Very good ","Longitude_x":46.714913,"Latitude_y":24.767934},{"Name":"Boudl Al Sahafa","City":" Riyadh","Star_Rating":"4","Type_of_room":"Superior Twin Room","Review_title":" Very good ","Longitude_x":46.6473269463,"Latitude_y":24.8105632074},{"Name":"Alazhar Palace Hotel","City":" Al Qunfudhah","Star_Rating":"4","Type_of_room":"Deluxe Junior Suite","Review_title":" Good ","Longitude_x":41.0721248306,"Latitude_y":19.1335678034},{"Name":"MIRA SUITES PRINCE SULTAN ROAD JEDDAH","City":" Jeddah","Star_Rating":"4","Type_of_room":"Two-Bedroom Suite","Review_title":" Review score ","Longitude_x":39.1349516809,"Latitude_y":21.6278247472},{"Name":"Rabigh Park Hotel","City":" Rabigh","Star_Rating":"4","Type_of_room":"Standard Double Room","Review_title":" Very good ","Longitude_x":39.037534118,"Latitude_y":22.7757469049},{"Name":"Mena Airport Hotel Jeddah","City":" Jeddah","Star_Rating":"4","Type_of_room":"Twin Room with Private Bathroom","Review_title":" Good ","Longitude_x":39.151563,"Latitude_y":21.670689},{"Name":"Ascott Tahlia Jeddah","City":" Al Tahlia Street, Jeddah","Star_Rating":"4","Type_of_room":"Executive Studio","Review_title":" Very good ","Longitude_x":39.1709214449,"Latitude_y":21.5548169759},{"Name":"Braira Hotel-Olaya","City":" Al Olaya, Riyadh","Star_Rating":"4","Type_of_room":"Superior Double Room","Review_title":" Very good ","Longitude_x":46.6887697577,"Latitude_y":24.6853759263},{"Name":"Danah Al-Jubail Suites","City":" Al Jubail","Star_Rating":"4","Type_of_room":"Standard Suite with City View","Review_title":" Superb ","Longitude_x":49.5781985662,"Latitude_y":27.1635622116},{"Name":"Holiday Inn Resort Half Moon Bay","City":" Half Moon Bay","Star_Rating":"4","Type_of_room":"Deluxe King Room - Smoking","Review_title":" Review score ","Longitude_x":50.0662569702,"Latitude_y":26.1745523874},{"Name":"Mercure Hotel Khamis Mushayt","City":" Khamis Mushayt","Star_Rating":"4","Type_of_room":"Deluxe Room with 2 single beds, City side","Review_title":" Review score ","Longitude_x":42.7162478864,"Latitude_y":18.3053920955},{"Name":"Ascott Rafal Olaya Riyadh","City":" Riyadh","Star_Rating":"4","Type_of_room":"Studio Executive","Review_title":" Good ","Longitude_x":46.6264795343,"Latitude_y":24.8089072531},{"Name":"Hyatt House Jeddah Sari Street","City":" Al Salamah, Jeddah","Star_Rating":"4","Type_of_room":"Twin Studio","Review_title":" Fabulous ","Longitude_x":39.1531190264,"Latitude_y":21.5778362506},{"Name":"National Park Hotel","City":" Baljurashi","Star_Rating":"4","Type_of_room":"Deluxe Twin Room","Review_title":" Very good ","Longitude_x":41.590166688,"Latitude_y":19.8426137254},{"Name":"Park Inn by Radisson Najran","City":" Najran","Star_Rating":"4","Type_of_room":"Superior Room","Review_title":" Good ","Longitude_x":44.2303609986,"Latitude_y":17.5681012624},{"Name":"V Boutique Hotel","City":" Sari Street, Jeddah","Star_Rating":"4","Type_of_room":"Deluxe King Room","Review_title":" Superb ","Longitude_x":39.1387900926,"Latitude_y":21.5737772847},{"Name":"Holiday Inn Jeddah Gateway","City":" Jeddah","Star_Rating":"4","Type_of_room":"Deluxe King Room - Non-Smoking","Review_title":" Very good ","Longitude_x":39.154447,"Latitude_y":21.6262326042},{"Name":"swiss eye","City":" Al Hamra, Jeddah","Star_Rating":"4","Type_of_room":"Deluxe Double Room (1 adult + 2 children)","Review_title":" Very good ","Longitude_x":39.1644382081,"Latitude_y":21.5195592657},{"Name":"Courtyard by Marriott Jazan","City":" Jazan","Star_Rating":"4","Type_of_room":"Deluxe Room, Guest room, 1 King","Review_title":" Very good ","Longitude_x":42.5541579723,"Latitude_y":16.9019719},{"Name":"Makarem Annakheel Hotel & Resort","City":" North Obhr, Jeddah","Star_Rating":"4","Type_of_room":"Deluxe Twin Room with Garden View","Review_title":" Good ","Longitude_x":39.1266274452,"Latitude_y":21.7593253539},{"Name":"Braira Al Azizya Hotel & Resort","City":" Al Khobar","Star_Rating":"4","Type_of_room":"Superior Suite","Review_title":" Good ","Longitude_x":50.162906684,"Latitude_y":26.1509700634},{"Name":"Staybridge Suites - Al Khobar","City":" Al Khobar","Star_Rating":"4","Type_of_room":"Deluxe Studio Suite - Non-Smoking","Review_title":" Fabulous ","Longitude_x":50.1952556797,"Latitude_y":26.3434293233},{"Name":"Holiday Inn Tabuk","City":" Tabuk","Star_Rating":"4","Type_of_room":"Twin Room - Smoking","Review_title":" Very good ","Longitude_x":36.5964671,"Latitude_y":28.410467},{"Name":"Marriott Executive Apartments Riyadh, Convention Center","City":" Riyadh","Star_Rating":"4","Type_of_room":"One-Bedroom Apartment","Review_title":" Very good ","Longitude_x":46.7134782672,"Latitude_y":24.6878906781},{"Name":"Doubletree By Hilton Makkah Jabal Omar","City":" Makkah","Star_Rating":"4","Type_of_room":"King Guest Room with Mobility Accessible","Review_title":" Fabulous ","Longitude_x":39.818293,"Latitude_y":21.423},{"Name":"Villas And Chalets Jadeite","City":" Hotat bani tamim","Star_Rating":"0","Type_of_room":"Villa with Private Pool","Review_title":" Superb ","Longitude_x":46.8665465713,"Latitude_y":23.4338649628},{"Name":"Luxury Large Flat in Madinah close to Masjid Nabawi","City":" Al Madinah","Star_Rating":"0","Type_of_room":"Apartment","Review_title":" Superb ","Longitude_x":39.6545330614,"Latitude_y":24.4757212354},{"Name":"Al Kanari Resort","City":" Taif","Star_Rating":"0","Type_of_room":"Villa with Private Pool","Review_title":" Fabulous ","Longitude_x":40.378012,"Latitude_y":21.226815},{"Name":"Villa Blanche","City":" Unayzah","Star_Rating":"0","Type_of_room":"Villa with Private Pool","Review_title":" Fabulous ","Longitude_x":43.9602577686,"Latitude_y":26.1289401216},{"Name":"Park Inn by Radisson Hotel & Apartments Dammam Industrial City","City":" Dammam","Star_Rating":"4","Type_of_room":"One-Bedroom Apartment","Review_title":" Very good ","Longitude_x":49.987051,"Latitude_y":26.23354},{"Name":"Dar Al Iman InterContinental","City":" Central Madinah, Al Madinah","Star_Rating":"4","Type_of_room":"Standard King Room with City View","Review_title":" Very good ","Longitude_x":39.6088242531,"Latitude_y":24.4711104618},{"Name":"Al Massa Hotel Makkah","City":" Ajyad, Makkah","Star_Rating":"4","Type_of_room":"Twin Room","Review_title":" Review score ","Longitude_x":39.8280693591,"Latitude_y":21.4200977297},{"Name":"Mnazel Jawraq","City":" Riyadh","Star_Rating":"0","Type_of_room":"Villa with Private Pool","Review_title":" Fabulous ","Longitude_x":46.5915253084,"Latitude_y":24.6528885469},{"Name":"Beach Time Villas Hotel","City":" Al Shatiea, Jeddah","Star_Rating":"4","Type_of_room":"Three-Bedroom Villa","Review_title":" Very good ","Longitude_x":39.115143,"Latitude_y":21.577118},{"Name":"Ruba Al Hijaz Hotel","City":" Makkah","Star_Rating":"3","Type_of_room":"King Room","Review_title":" Good ","Longitude_x":39.8718839139,"Latitude_y":21.3922569738},{"Name":"Al Rahaba Almomaiazah Furnished Units 6","City":" Al Hamra, Jeddah","Star_Rating":"0","Type_of_room":"Studio Apartment","Review_title":" Review score ","Longitude_x":39.1581963631,"Latitude_y":21.5206066959},{"Name":"Reef Al Malaz Hotel International","City":" Al Malaz, Riyadh","Star_Rating":"3","Type_of_room":"Double or Twin Room","Review_title":" Review score ","Longitude_x":46.7207980156,"Latitude_y":24.6590107801},{"Name":"Almakan Hotel 105","City":" Riyadh","Star_Rating":"3","Type_of_room":"Suite","Review_title":" Review score ","Longitude_x":46.7024114728,"Latitude_y":24.6618066875},{"Name":"Rahaf Al Mashaer Hotel","City":" Al Aziziyah, Makkah","Star_Rating":"3","Type_of_room":"Double Room","Review_title":" Very good ","Longitude_x":39.8651639381,"Latitude_y":21.4200395831},{"Name":"OYO 369 Arwa Alqosor","City":" Abha","Star_Rating":"3","Type_of_room":"Standard Studio","Review_title":" Good ","Longitude_x":42.5083176141,"Latitude_y":18.2306390851},{"Name":"Abeer Al Azizia Hotel","City":" Makkah","Star_Rating":"3","Type_of_room":"Double Room","Review_title":" Good ","Longitude_x":39.8814815283,"Latitude_y":21.4000983456},{"Name":"OYO 402 Jawhrat Asfari Hotel","City":" Al Khobar","Star_Rating":"3","Type_of_room":"Standard Studio","Review_title":" Review score ","Longitude_x":50.2110171318,"Latitude_y":26.2826486602},{"Name":"OYO 389 Diar Rawshan","City":" Dammam","Star_Rating":"3","Type_of_room":"Standard Studio","Review_title":" Good ","Longitude_x":50.025402,"Latitude_y":26.420834},{"Name":"OYO 372 Nawazi Watheer Hotel","City":" Makkah","Star_Rating":"3","Type_of_room":"Deluxe Room","Review_title":" Good ","Longitude_x":39.8163507879,"Latitude_y":21.4288529973},{"Name":"Jiwar Albyt Hotel","City":" Al Aziziyah, Makkah","Star_Rating":"3","Type_of_room":"Triple Room","Review_title":" Good ","Longitude_x":39.8616814613,"Latitude_y":21.4111201639},{"Name":"OYO 463 Mawada Alaziziya","City":" Al Madinah","Star_Rating":"3","Type_of_room":"Standard Studio","Review_title":" Good ","Longitude_x":39.5285290893,"Latitude_y":24.4596048776},{"Name":"Al Rawhanya Hotel","City":" Makkah","Star_Rating":"3","Type_of_room":"Quadruple Room","Review_title":" Good ","Longitude_x":39.8455104232,"Latitude_y":21.4562865078},{"Name":"OYO 395 Al Hafof Hotel","City":" Jeddah","Star_Rating":"3","Type_of_room":"Standard King Room","Review_title":" Review score ","Longitude_x":39.1923484183,"Latitude_y":21.5229151561},{"Name":"Gardinia Inn Furnished Units","City":" Jeddah","Star_Rating":"3","Type_of_room":"Double Room","Review_title":" Review score ","Longitude_x":39.1618165383,"Latitude_y":21.6276850884},{"Name":"Reef Global Hotel -Al Maabda","City":" Makkah","Star_Rating":"3","Type_of_room":"Twin Room","Review_title":" Good ","Longitude_x":39.8438973469,"Latitude_y":21.4396753459},{"Name":"Taj Al Munera 2","City":" Dammam","Star_Rating":"0","Type_of_room":"One-Bedroom Apartment","Review_title":" Review score ","Longitude_x":50.0687715411,"Latitude_y":26.4251881149},{"Name":"Al Masarah Furnished Units","City":" Yanbu","Star_Rating":"0","Type_of_room":"Standard Studio","Review_title":" Good ","Longitude_x":38.0033692718,"Latitude_y":24.1266003325},{"Name":"OYO 401 Al Zaidan For Furnished Units","City":" Hafa","Star_Rating":"3","Type_of_room":"Standard Studio Twin","Review_title":" Very good ","Longitude_x":43.95021,"Latitude_y":26.361454},{"Name":"OYO 351 Darr Mesk","City":" Hail","Star_Rating":"3","Type_of_room":" Standard Studio Double","Review_title":" Good ","Longitude_x":41.64559,"Latitude_y":27.459055},{"Name":"OYO 350 Dar Almadinah","City":" Hera Street, Jeddah","Star_Rating":"3","Type_of_room":"One-Bedroom Apartment","Review_title":" Review score ","Longitude_x":39.1334080696,"Latitude_y":21.6093677552},{"Name":"Safa Al-Mashaer","City":" Makkah","Star_Rating":"3","Type_of_room":"Triple Room with Bath","Review_title":" Good ","Longitude_x":39.852768,"Latitude_y":21.405352},{"Name":"Praha Hotel","City":" Jeddah","Star_Rating":"3","Type_of_room":"Studio","Review_title":" Review score ","Longitude_x":39.169813,"Latitude_y":21.588054},{"Name":"Qasr alshawamekh","City":" Riyadh","Star_Rating":"3","Type_of_room":"Economy Double Room","Review_title":" Good ","Longitude_x":46.755547,"Latitude_y":24.616837},{"Name":"OYO 412 Qasr Aseer","City":" Khamis Mushayt","Star_Rating":"3","Type_of_room":"Standard Studio","Review_title":" Good ","Longitude_x":42.757827458,"Latitude_y":18.3090956583},{"Name":"Abha Sky (Families Only)","City":" Abha","Star_Rating":"3","Type_of_room":"Large Double or Twin Room","Review_title":" Fabulous ","Longitude_x":42.5933249947,"Latitude_y":18.2874216712},{"Name":"Rozana 2 ApartHotel","City":" Al Salamah, Jeddah","Star_Rating":"3","Type_of_room":"Standard Double Room","Review_title":" Good ","Longitude_x":39.159665,"Latitude_y":21.581858},{"Name":"Tera Sedky Hotel","City":" Al Aziziyah, Makkah","Star_Rating":"3","Type_of_room":"Special Offer - Twin Room","Review_title":" Review score ","Longitude_x":39.864316,"Latitude_y":21.419166},{"Name":"Shate Al Hayat Hotel Suites","City":" Hera Street, Jeddah","Star_Rating":"3","Type_of_room":"Superior Studio","Review_title":" Very good ","Longitude_x":39.2071282111,"Latitude_y":21.6229568452},{"Name":"Park Tulip","City":" \u2018Af\u012bf","Star_Rating":"3","Type_of_room":"One-Bedroom Apartment","Review_title":" Very good ","Longitude_x":42.91219,"Latitude_y":23.877848},{"Name":"OYO 352 Lamasat Alwadi","City":" Al Hamra, Riyadh","Star_Rating":"3","Type_of_room":"Standard Double Room","Review_title":" Review score ","Longitude_x":46.7597052663,"Latitude_y":24.7729839099},{"Name":"Lamasat Almakrunih Hotel Palace","City":" Jeddah","Star_Rating":"0","Type_of_room":"Family Room with Bathroom","Review_title":" Good ","Longitude_x":39.1987124838,"Latitude_y":21.5421860927},{"Name":"Al Meshan Hotel","City":" Al Wudayy","Star_Rating":"3","Type_of_room":"Double or Twin Room with Bathroom","Review_title":" Review score ","Longitude_x":41.5591710806,"Latitude_y":27.3840096631},{"Name":"Janadrya 13","City":" Al Khobar","Star_Rating":"0","Type_of_room":"Double or Twin Room","Review_title":" Good ","Longitude_x":50.2158021927,"Latitude_y":26.289011914},{"Name":"OYO 388 Al Dana Al Khalijia","City":" Al Olayya, Al Khobar","Star_Rating":"3","Type_of_room":"Standard Studio","Review_title":" Good ","Longitude_x":50.176247,"Latitude_y":26.293722},{"Name":"Lafontaine Jeddah Hotel","City":" Jeddah","Star_Rating":"3","Type_of_room":"Deluxe Double Room","Review_title":" Good ","Longitude_x":39.1733093709,"Latitude_y":21.5650083358},{"Name":"Makarem Najd Funished Units 2","City":" Riyadh","Star_Rating":"0","Type_of_room":"Studio","Review_title":" Review score ","Longitude_x":46.7331001461,"Latitude_y":24.7584150487},{"Name":"Capital O 419 Al Safeer Hotel","City":" Riyadh","Star_Rating":"3","Type_of_room":"Standard Studio","Review_title":" Review score ","Longitude_x":46.8177035451,"Latitude_y":24.7194659138},{"Name":"OYO 411 Moon Hotel","City":" Dammam","Star_Rating":"3","Type_of_room":"Standard Studio","Review_title":" Good ","Longitude_x":50.1182609797,"Latitude_y":26.4446151196},{"Name":"OYO 328 Al Mumiyaz Tower","City":" Ra\u02bcs Tann\u016brah","Star_Rating":"3","Type_of_room":"Studio","Review_title":" Review score ","Longitude_x":50.052074,"Latitude_y":26.713007},{"Name":"OYO 356 Durra Taraf Residential","City":" Dammam","Star_Rating":"3","Type_of_room":"Standard Studio","Review_title":" Good ","Longitude_x":50.0238364087,"Latitude_y":26.3800360044},{"Name":"Capital O 162 Brzeen Hotel","City":" Riyadh","Star_Rating":"3","Type_of_room":"Standard Room King","Review_title":" Good ","Longitude_x":46.6404470801,"Latitude_y":24.6989763057},{"Name":"Golden Garden Al Corniche","City":" Dammam","Star_Rating":"3","Type_of_room":"Junior Suite Sea View","Review_title":" Good ","Longitude_x":50.0863491297,"Latitude_y":26.4720401295},{"Name":"Al Alya Furnished Apartments","City":" Jeddah","Star_Rating":"0","Type_of_room":"One-Bedroom Apartment","Review_title":" Good ","Longitude_x":39.2570731603,"Latitude_y":21.4092650437},{"Name":"Al-Hariri Suites","City":" Jeddah","Star_Rating":"3","Type_of_room":"Double Room","Review_title":" Very good ","Longitude_x":39.1919995844,"Latitude_y":21.7490038125},{"Name":"Refal Yanbu furnished units","City":" Yanbu","Star_Rating":"0","Type_of_room":"One-Bedroom Apartment","Review_title":" Very good ","Longitude_x":38.1071540678,"Latitude_y":24.0727029912},{"Name":"First Room Hotel Apartments","City":" Riyadh","Star_Rating":"3","Type_of_room":"Standard Double Room","Review_title":" Fabulous ","Longitude_x":46.688409,"Latitude_y":24.655664},{"Name":"Lavona Hotel Dammam","City":" Dammam","Star_Rating":"3","Type_of_room":"Standard Double Room","Review_title":" Very good ","Longitude_x":50.0602260232,"Latitude_y":26.407658843},{"Name":"Le Park Concord Hotel","City":" \u2018Af\u012bf","Star_Rating":"3","Type_of_room":"Deluxe Double Room","Review_title":" Superb ","Longitude_x":42.912869576,"Latitude_y":23.9026095156},{"Name":"Maset Al Masem Al Khobar","City":" Al Olayya, Al Khobar","Star_Rating":"3","Type_of_room":"Double Room with Private Bathroom","Review_title":" Very good ","Longitude_x":50.1730047805,"Latitude_y":26.2960190144},{"Name":"Nawazi Al Fateh Hotel","City":" Makkah","Star_Rating":"3","Type_of_room":"Deluxe Double Room","Review_title":" Good ","Longitude_x":39.820235,"Latitude_y":21.436799},{"Name":"Hayat Al Rose Hotel Appartment","City":" Al Salamah, Jeddah","Star_Rating":"3","Type_of_room":"Superior Double Room","Review_title":" Superb ","Longitude_x":39.149893,"Latitude_y":21.610871},{"Name":"Mahra House","City":" Al Majmaah","Star_Rating":"0","Type_of_room":"One-Bedroom Apartment","Review_title":" Good ","Longitude_x":45.3883834422,"Latitude_y":25.9094988269},{"Name":"Qasser AlRawsha","City":" Jeddah","Star_Rating":"3","Type_of_room":"One-Bedroom Apartment","Review_title":" Review score ","Longitude_x":39.2067450285,"Latitude_y":21.5420058474},{"Name":"OYO 333 Dheyof Al Wattan For Hotel Suites","City":" Butainiy\u0101t","Star_Rating":"3","Type_of_room":"One-Bedroom Apartment","Review_title":" Very good ","Longitude_x":43.920692,"Latitude_y":26.391235},{"Name":"WARD Hotel Suites","City":" Ahad Rafidah","Star_Rating":"3","Type_of_room":"Deluxe Double Room","Review_title":" Very good ","Longitude_x":42.8122276341,"Latitude_y":18.1849855217},{"Name":"Al Joory Suites Hotel","City":" Al Khafji","Star_Rating":"3","Type_of_room":"Deluxe Family Room","Review_title":" Very good ","Longitude_x":48.4889793489,"Latitude_y":28.4534526101},{"Name":"Sharq Hotel","City":" Al Jubayl","Star_Rating":"3","Type_of_room":"Double Room","Review_title":" Review score ","Longitude_x":49.6590968772,"Latitude_y":27.0132511461},{"Name":"Sharurah Plaza Hotel","City":" Sharurah","Star_Rating":"3","Type_of_room":"Twin Room","Review_title":" Fabulous ","Longitude_x":47.0974036306,"Latitude_y":17.5092614976},{"Name":"Al Reef Homes Hotel Apartments Alnuzhah","City":" Abha","Star_Rating":"0","Type_of_room":"Two-Bedroom Apartment","Review_title":" Good ","Longitude_x":42.5113082443,"Latitude_y":18.2095923128},{"Name":"Snood Alazizyh Hotel","City":" Makkah","Star_Rating":"3","Type_of_room":"Double or Twin Room","Review_title":" Good ","Longitude_x":39.8654295,"Latitude_y":21.3988531},{"Name":"B2-homes","City":" Yanbu","Star_Rating":"0","Type_of_room":"Superior Apartment","Review_title":" Good ","Longitude_x":38.0930221553,"Latitude_y":24.1115093868},{"Name":"SHALLY RESIDENCE 3","City":" Al Khobar","Star_Rating":"3","Type_of_room":"Deluxe Double Room","Review_title":" Very good ","Longitude_x":50.2095223181,"Latitude_y":26.2020580377},{"Name":"Wakan Luxury Villas and Suites","City":" Jeddah","Star_Rating":"0","Type_of_room":"One-Bedroom Apartment","Review_title":" Good ","Longitude_x":39.139072895,"Latitude_y":21.5592483114},{"Name":"Mabet Al Tahlia Hotel Apartments","City":" Al Tahlia Street, Jeddah","Star_Rating":"3","Type_of_room":"Deluxe King Studio","Review_title":" Very good ","Longitude_x":39.1779444653,"Latitude_y":21.5577146918},{"Name":"Dyar Al Hamra Hotel","City":" Al Hamra, Jeddah","Star_Rating":"3","Type_of_room":"Superior King Room","Review_title":" Good ","Longitude_x":39.1592512027,"Latitude_y":21.5189606696},{"Name":"Diyar Almashaer Hotel","City":" Makkah","Star_Rating":"3","Type_of_room":"Triple Room","Review_title":" Very good ","Longitude_x":39.8729962863,"Latitude_y":21.4017903841},{"Name":"Capital O 338 Asian Hotel","City":" Al Jubail","Star_Rating":"3","Type_of_room":"Standard Studio","Review_title":" Review score ","Longitude_x":49.6264131421,"Latitude_y":27.000522513},{"Name":"Kadi Hotel","City":" Al Mikhlaf","Star_Rating":"3","Type_of_room":"One-Bedroom Suite","Review_title":" Very good ","Longitude_x":44.3140920997,"Latitude_y":17.5605204451},{"Name":"Al Shaiki Hotel","City":" Al Jubail","Star_Rating":"3","Type_of_room":"Double Room","Review_title":" Review score ","Longitude_x":49.6601163,"Latitude_y":27.0116361862},{"Name":"AlMuhaidb Residence Alkhafji","City":" Al Khafji","Star_Rating":"3","Type_of_room":"Standard Double Room","Review_title":" Very good ","Longitude_x":48.4854163528,"Latitude_y":28.4633180443},{"Name":"Renz Hotel Jeddah","City":" Jeddah","Star_Rating":"3","Type_of_room":"Classic King Room","Review_title":" Very good ","Longitude_x":39.2104625702,"Latitude_y":21.5349168614},{"Name":"Radmah Suites Jubail","City":" Al Jubail","Star_Rating":"3","Type_of_room":"Studio Apartment","Review_title":" Review score ","Longitude_x":49.6580852,"Latitude_y":27.0048545},{"Name":"Nawara Sulimania Askary","City":" Al Sulimania, Riyadh","Star_Rating":"0","Type_of_room":"Studio Apartment","Review_title":" Review score ","Longitude_x":46.7155898,"Latitude_y":24.7031281},{"Name":"Capital O 309 Al-faleh Hotel","City":" Al Baha","Star_Rating":"3","Type_of_room":"Standard Studio","Review_title":" Review score ","Longitude_x":41.4483341575,"Latitude_y":20.0388578301},{"Name":"Super 8 Al Riyadh","City":" Riyadh","Star_Rating":"3","Type_of_room":"King Room - Non-Smoking","Review_title":" Good ","Longitude_x":46.7357057333,"Latitude_y":24.8345313946},{"Name":"Howard Johnson Dammam Hotel","City":" Dammam","Star_Rating":"3","Type_of_room":"King Room with City View - Non-Smoking","Review_title":" Good ","Longitude_x":50.0863158703,"Latitude_y":26.4684697137},{"Name":"Sadeem Village & Chalet","City":" Al Shafa","Star_Rating":"0","Type_of_room":"One-Bedroom Chalet","Review_title":" Good ","Longitude_x":40.3351128101,"Latitude_y":21.0636266214},{"Name":"Armada Hotel Jazan","City":" Jazan","Star_Rating":"3","Type_of_room":"Deluxe Room","Review_title":" Fabulous ","Longitude_x":42.605969,"Latitude_y":16.848112},{"Name":"Lavona Tiba Hotel","City":" Dammam","Star_Rating":"3","Type_of_room":"Deluxe King Room","Review_title":" Fabulous ","Longitude_x":50.0583832514,"Latitude_y":26.3697948071},{"Name":"Alraqi Plaza Hotel","City":" Makkah","Star_Rating":"0","Type_of_room":"Triple Room with Private Bathroom","Review_title":" Good ","Longitude_x":39.8356098981,"Latitude_y":21.4308037141},{"Name":"Auris Al Fanar Apartments","City":" Al Hamra, Riyadh","Star_Rating":"3","Type_of_room":"One-Bedroom Apartment","Review_title":" Good ","Longitude_x":46.7607795595,"Latitude_y":24.7735070531},{"Name":"Qasr el Aon Furnished Apartments","City":" Sharurah","Star_Rating":"3","Type_of_room":"Studio Apartment","Review_title":" Good ","Longitude_x":47.0999127296,"Latitude_y":17.4829569968},{"Name":"Crystal Blue Hotel","City":" Rabigh","Star_Rating":"3","Type_of_room":"Double Room","Review_title":" Good ","Longitude_x":39.0341126919,"Latitude_y":22.7824876663},{"Name":"Ertiaad Hotel","City":" Tabuk","Star_Rating":"3","Type_of_room":"Studio","Review_title":" Very good ","Longitude_x":36.5676417947,"Latitude_y":28.3646442326},{"Name":"Platinum The First","City":" Al Madinah","Star_Rating":"3","Type_of_room":"Twin Room","Review_title":" Very good ","Longitude_x":39.6028375626,"Latitude_y":24.4889234306},{"Name":"Jubail Inn","City":" Al Jubail","Star_Rating":"3","Type_of_room":"Deluxe Twin Room","Review_title":" Good ","Longitude_x":49.6488368511,"Latitude_y":26.9646479682},{"Name":"Al Waleed Tower Hotel","City":" Makkah","Star_Rating":"3","Type_of_room":"Double Room","Review_title":" Very good ","Longitude_x":39.8660521209,"Latitude_y":21.3977711699},{"Name":"Signature Al Khobar Hotel","City":" Al Khobar","Star_Rating":"3","Type_of_room":"Standard  Room","Review_title":" Good ","Longitude_x":50.2101695538,"Latitude_y":26.3161275806},{"Name":"Wow Boutique Hotel Jeddah","City":" Jeddah","Star_Rating":"3","Type_of_room":"Standard Double Room","Review_title":" Very good ","Longitude_x":39.1513912034,"Latitude_y":21.6180614559},{"Name":"Quiet Rooms Apart","City":" Riyadh","Star_Rating":"0","Type_of_room":"Two-Bedroom Apartment","Review_title":" Good ","Longitude_x":46.8050271661,"Latitude_y":24.8129941174},{"Name":"Alfarhan Panda Alfayha","City":" Riyadh","Star_Rating":"3","Type_of_room":"Budget Double Room","Review_title":" Very good ","Longitude_x":46.8140788588,"Latitude_y":24.6834619245},{"Name":"Taleen Al Hamra'a Hotel","City":" Al Hamra, Jeddah","Star_Rating":"3","Type_of_room":"Double Room","Review_title":" Very good ","Longitude_x":39.162399,"Latitude_y":21.515375},{"Name":"Gloria Inn Riyadh","City":" Riyadh","Star_Rating":"3","Type_of_room":"Standard Double Room","Review_title":" Good ","Longitude_x":46.7171958089,"Latitude_y":24.6304400873},{"Name":"Hibatullah Hotel Makkah managed by Accorhotels","City":" Makkah","Star_Rating":"3","Type_of_room":"Classic Twin Room - Cityside","Review_title":" Good ","Longitude_x":39.8160450161,"Latitude_y":21.4243274896},{"Name":"Canary Beach Hotel","City":" Yanbu","Star_Rating":"3","Type_of_room":"Double Room","Review_title":" Very good ","Longitude_x":38.0660498142,"Latitude_y":24.0869614553},{"Name":"Tulip Inn Riyadh","City":" Riyadh","Star_Rating":"3","Type_of_room":"Standard Twin Room","Review_title":" Review score ","Longitude_x":46.7168658972,"Latitude_y":24.6434139769},{"Name":"Garden Palace Hotel","City":" Jeddah","Star_Rating":"3","Type_of_room":"Superior King Room","Review_title":" Good ","Longitude_x":39.1267746,"Latitude_y":21.6737833},{"Name":"Al Ansar New Palace Hotel","City":" Central Madinah, Al Madinah","Star_Rating":"3","Type_of_room":"Double Room","Review_title":" Review score ","Longitude_x":39.609349966,"Latitude_y":24.4737323551},{"Name":"Nawaress Hotel","City":" Jazan","Star_Rating":"3","Type_of_room":"Standard Room","Review_title":" Very good ","Longitude_x":42.5618850812,"Latitude_y":16.9334333315},{"Name":"Almasem Luxury Hotel suite 6","City":" Riyadh","Star_Rating":"3","Type_of_room":"Double Room","Review_title":" Good ","Longitude_x":46.7352443933,"Latitude_y":24.7845575351},{"Name":"Rouh Taiba Hotel","City":" Al Madinah","Star_Rating":"3","Type_of_room":"Family Room","Review_title":" Good ","Longitude_x":39.6265351626,"Latitude_y":24.4720977456},{"Name":"Aral Hotel Apartments","City":" Tabuk","Star_Rating":"3","Type_of_room":"Economy Single Room","Review_title":" Superb ","Longitude_x":36.533075719,"Latitude_y":28.3524300466},{"Name":"Al Shahbaa Hotel Jeddah","City":" Jeddah","Star_Rating":"3","Type_of_room":"Deluxe Twin Room","Review_title":" Very good ","Longitude_x":39.2863878608,"Latitude_y":21.4381573125},{"Name":"Auris Al Fanar Villas & Private Pools - Alshatieaa","City":" Al Shatiea, Jeddah","Star_Rating":"0","Type_of_room":"One-Bedroom Villa","Review_title":" Review score ","Longitude_x":39.1105341911,"Latitude_y":21.6016420868},{"Name":"Rollins Hotel","City":" Buraydah","Star_Rating":"3","Type_of_room":"Superior Triple Room","Review_title":" Good ","Longitude_x":43.9425860345,"Latitude_y":26.3681055664},{"Name":"Al Mutlaq Hotel Riyadh","City":" Al Sulimania, Riyadh","Star_Rating":"3","Type_of_room":"Standard Twin Room","Review_title":" Good ","Longitude_x":46.718134582,"Latitude_y":24.7000290113},{"Name":"Golden Dune Hotel & Suite","City":" Riyadh","Star_Rating":"3","Type_of_room":"Superior Double Room","Review_title":" Very good ","Longitude_x":46.8028676603,"Latitude_y":24.6882527312},{"Name":"Hayat Redwa Hotel","City":" Yanbu","Star_Rating":"3","Type_of_room":"Standard Double Room","Review_title":" Good ","Longitude_x":38.0741983652,"Latitude_y":24.08693452},{"Name":"LAPERLA HOTEL","City":" Riyadh","Star_Rating":"3","Type_of_room":"Deluxe Room (2 Adults + 1 Child)","Review_title":" Good ","Longitude_x":46.810756,"Latitude_y":24.778645},{"Name":"Tulip Inn Suites and Residence Dammam","City":" Dammam","Star_Rating":"3","Type_of_room":"Junior Suite","Review_title":" Review score ","Longitude_x":50.1280671358,"Latitude_y":26.4849983772},{"Name":"Ibis Riyadh Olaya Street","City":" Al Olaya, Riyadh","Star_Rating":"3","Type_of_room":"Standard room with 2 Single size beds ","Review_title":" Good ","Longitude_x":46.6764329374,"Latitude_y":24.7121722532},{"Name":"Elaf Al Salam","City":" Ajyad, Makkah","Star_Rating":"3","Type_of_room":"Twin Room","Review_title":" Good ","Longitude_x":39.8334028843,"Latitude_y":21.4064412828},{"Name":"Borj Al Deafah Hotel","City":" Makkah","Star_Rating":"3","Type_of_room":"Double Room","Review_title":" Good ","Longitude_x":39.8226955533,"Latitude_y":21.4105207035},{"Name":"Park Inn by Radisson Dammam","City":" Dammam","Star_Rating":"3","Type_of_room":"Standard Room","Review_title":" Very good ","Longitude_x":50.130533,"Latitude_y":26.453129},{"Name":"Ibis Jeddah Malik Road","City":" King Abdul Aziz Road, Jeddah","Star_Rating":"3","Type_of_room":"Standard Twin Room","Review_title":" Very good ","Longitude_x":39.121506,"Latitude_y":21.60339},{"Name":"Golden Tulip Al Khobar","City":" Al Khobar","Star_Rating":"3","Type_of_room":"King Room","Review_title":" Good ","Longitude_x":50.215845108,"Latitude_y":26.2671430808},{"Name":"Abha Airport Hotel","City":" Abha","Star_Rating":"3","Type_of_room":"Double Room","Review_title":" Review score ","Longitude_x":42.6483088732,"Latitude_y":18.2334051503},{"Name":"Ramada Encore Al Khobar Olaya","City":" Al Olayya, Al Khobar","Star_Rating":"3","Type_of_room":"Twin Room with Two Twin Beds - Non-Smoking","Review_title":" Good ","Longitude_x":50.1780047077,"Latitude_y":26.3051801897},{"Name":"Joury Ajyad","City":" Ajyad, Makkah","Star_Rating":"3","Type_of_room":"Deluxe Room (2 Adults + 1 Child)","Review_title":" Good ","Longitude_x":39.8298607619,"Latitude_y":21.4068000135},{"Name":"Viola Hotel","City":" Jazan","Star_Rating":"3","Type_of_room":"Studio","Review_title":" Very good ","Longitude_x":42.5522224024,"Latitude_y":16.9337738938},{"Name":"Executives Hotel - Azizia","City":" Al Aziziyah, Riyadh","Star_Rating":"3","Type_of_room":"Standard Double Room","Review_title":" Very good ","Longitude_x":46.7446964979,"Latitude_y":24.596919175},{"Name":"Mercure Jeddah Al Hamra","City":" Al Hamra, Jeddah","Star_Rating":"3","Type_of_room":"Superior Room with Twin beds","Review_title":" Good ","Longitude_x":39.1594952345,"Latitude_y":21.5156543782},{"Name":"Swiss Spirit Hotel & Suites Metropolitan","City":" Riyadh","Star_Rating":"3","Type_of_room":"Deluxe Twin Room","Review_title":" Very good ","Longitude_x":46.625601,"Latitude_y":24.806781},{"Name":"Al Rawda Al Aqeeq Hotel","City":" Central Madinah, Al Madinah","Star_Rating":"3","Type_of_room":"Quadruple Room","Review_title":" Good ","Longitude_x":39.604248941,"Latitude_y":24.4681458502},{"Name":"Aber Yasmin","City":" Riyadh","Star_Rating":"3","Type_of_room":"Standard Double Room","Review_title":" Fabulous ","Longitude_x":46.6484057024,"Latitude_y":24.8201980539},{"Name":"Aber Al Sahafa","City":" Riyadh","Star_Rating":"3","Type_of_room":"Twin Room","Review_title":" Very good ","Longitude_x":46.6412978485,"Latitude_y":24.8186253878},{"Name":"Hawthorn Suites by Wyndham Al Khobar","City":" Al Khobar","Star_Rating":"3","Type_of_room":"Junior Suite","Review_title":" Good ","Longitude_x":50.2184468508,"Latitude_y":26.287431955},{"Name":"Saf Hotel","City":" Baljurashi","Star_Rating":"3","Type_of_room":"Double Room","Review_title":" Review score ","Longitude_x":41.5659967996,"Latitude_y":19.8935910514},{"Name":"Baraket Al Saada Hotel","City":" Sul\u0163\u0101nah","Star_Rating":"3","Type_of_room":"Quadruple Room","Review_title":" Review score ","Longitude_x":39.6030982751,"Latitude_y":24.467879166},{"Name":"Masayef Jeddah Al Gharbeah","City":" Jeddah","Star_Rating":"3","Type_of_room":"Deluxe Apartment","Review_title":" Good ","Longitude_x":39.190779,"Latitude_y":21.554337},{"Name":"Aquila Hotel","City":" Al Hamra, Jeddah","Star_Rating":"3","Type_of_room":"Deluxe Twin Room","Review_title":" Very good ","Longitude_x":39.16024339,"Latitude_y":21.5205685971},{"Name":"OYO 357 Blue Diamond Hotel","City":" Al Madinah","Star_Rating":"3","Type_of_room":"Standard Studio","Review_title":" Review score ","Longitude_x":39.6441497836,"Latitude_y":24.4836029937},{"Name":"Rose White Hotel","City":" Al Rawda, Jeddah","Star_Rating":"3","Type_of_room":"Twin Room","Review_title":" Very good ","Longitude_x":39.156079,"Latitude_y":21.578033},{"Name":"Arkan Bakkah Hotel","City":" Al Aziziyah, Makkah","Star_Rating":"3","Type_of_room":"Twin Room","Review_title":" Good ","Longitude_x":39.8503786325,"Latitude_y":21.4210183184},{"Name":"Aloft Riyadh Hotel","City":" Al Olaya, Riyadh","Star_Rating":"3","Type_of_room":"Aloft Room, Guest room, 1 King","Review_title":" Very good ","Longitude_x":46.6925128698,"Latitude_y":24.6797758644},{"Name":"Radisson Blu Hotel, Yanbu","City":" Yanbu","Star_Rating":"3","Type_of_room":"Standard Room","Review_title":" Good ","Longitude_x":38.0864667892,"Latitude_y":24.065940424},{"Name":"Meral Crown Hotel","City":" Riyadh","Star_Rating":"3","Type_of_room":"Junior Suite","Review_title":" Good ","Longitude_x":46.7376798391,"Latitude_y":24.7904480282},{"Name":"Habitat Hotel All Suites - Jeddah","City":" Al Salamah, Jeddah","Star_Rating":"3","Type_of_room":"Junior Suite with King Bed","Review_title":" Very good ","Longitude_x":39.1565643,"Latitude_y":21.60747},{"Name":"FLAMINGO Boutique Hotel By ALBALAD INN","City":" Al Hamra, Jeddah","Star_Rating":"3","Type_of_room":"King Suite","Review_title":" Fabulous ","Longitude_x":39.1604995512,"Latitude_y":21.5219873595},{"Name":"Lareen Suites","City":" Al Rawda, Jeddah","Star_Rating":"3","Type_of_room":"Two-Bedroom Suite","Review_title":" Very good ","Longitude_x":39.166215,"Latitude_y":21.565412},{"Name":"Al Olayan Al Khalil Makkah Hotel","City":" Makkah","Star_Rating":"3","Type_of_room":"Twin Room","Review_title":" Review score ","Longitude_x":39.8221108317,"Latitude_y":21.4140387722},{"Name":"Ewaa Express Hotel - Gaber","City":" Riyadh","Star_Rating":"3","Type_of_room":"Suite","Review_title":" Superb ","Longitude_x":46.8201876415,"Latitude_y":24.7918369813},{"Name":"Spectrums Residence Managed by The Ascott Limited","City":" Al Salamah, Jeddah","Star_Rating":"3","Type_of_room":"One-Bedroom Apartment","Review_title":" Very good ","Longitude_x":39.1419777274,"Latitude_y":21.6081645431},{"Name":"Mira Waterfront Hotel Jeddah","City":" Jeddah","Star_Rating":"3","Type_of_room":"Superior Twin Room with City View","Review_title":" Good ","Longitude_x":39.1637974818,"Latitude_y":21.5091501593},{"Name":"Diwan Residence Hotel- Alsalamah","City":" Al Salamah, Jeddah","Star_Rating":"3","Type_of_room":"Deluxe Twin Room","Review_title":" Fabulous ","Longitude_x":39.156189785,"Latitude_y":21.5951487803},{"Name":"Light Moon","City":" Taif","Star_Rating":"0","Type_of_room":"Deluxe Villa","Review_title":" Good ","Longitude_x":40.5165266991,"Latitude_y":21.4043389855},{"Name":"Tulip Inn Al Dar Rawafed","City":" Central Madinah, Al Madinah","Star_Rating":"3","Type_of_room":"Deluxe King Room","Review_title":" Very good ","Longitude_x":39.6044710234,"Latitude_y":24.4688719167},{"Name":"Nawazi Ajyad Hotel","City":" Ajyad, Makkah","Star_Rating":"3","Type_of_room":"Double Room","Review_title":" Review score ","Longitude_x":39.828954488,"Latitude_y":21.4198405443},{"Name":"Lamar Al Bait Hotel","City":" Ajyad, Makkah","Star_Rating":"3","Type_of_room":"Deluxe Double Room","Review_title":" Very good ","Longitude_x":39.8321432275,"Latitude_y":21.4010438891},{"Name":"Swiss Blue","City":" Jazan","Star_Rating":"3","Type_of_room":"One-Bedroom Suite","Review_title":" Fabulous ","Longitude_x":42.5760628463,"Latitude_y":16.880493656},{"Name":"Konoz Al Yam Hotel Jeddah","City":" Al Shatiea, Jeddah","Star_Rating":"3","Type_of_room":"Twin Junior Suite","Review_title":" Very good ","Longitude_x":39.1193117201,"Latitude_y":21.5581648382},{"Name":"180 Executive Suites AlNarjes","City":" Riyadh","Star_Rating":"3","Type_of_room":"Standard Double Room","Review_title":" Fabulous ","Longitude_x":46.679848,"Latitude_y":24.84531},{"Name":"Al Wadi Touristic Resort","City":" Al Shafa","Star_Rating":"0","Type_of_room":"Three-Bedroom Villa","Review_title":" Good ","Longitude_x":40.3630139,"Latitude_y":21.0536616},{"Name":"Wardedt Al-Shifa Resort","City":" Taif","Star_Rating":"0","Type_of_room":"Villa with Private Pool","Review_title":" Very good ","Longitude_x":40.3186200271,"Latitude_y":21.0916623526},{"Name":"Lamar Ajyad Hotel 2 - Tower B","City":" Ajyad, Makkah","Star_Rating":"3","Type_of_room":"Deluxe King Room","Review_title":" Good ","Longitude_x":39.8311234001,"Latitude_y":21.4010993934},{"Name":"Lamar Ajyad Hotel","City":" Ajyad, Makkah","Star_Rating":"3","Type_of_room":"Twin Room","Review_title":" Good ","Longitude_x":39.8307234049,"Latitude_y":21.4006227744},{"Name":"Rove Al Madinah Hotel","City":" Central Madinah, Al Madinah","Star_Rating":"3","Type_of_room":"Standard Twin Room","Review_title":" Very good ","Longitude_x":39.6122950315,"Latitude_y":24.472653333},{"Name":"Rayanat Ajyad Hotel - Makkah","City":" Ajyad, Makkah","Star_Rating":"3","Type_of_room":"Twin Room","Review_title":" Good ","Longitude_x":39.8285087011,"Latitude_y":21.4166756376},{"Name":"That Msa Resort","City":" Khamis Mushayt","Star_Rating":"0","Type_of_room":"Villa with Private Pool","Review_title":" Good ","Longitude_x":42.6668134332,"Latitude_y":18.2835811546},{"Name":"Villa Rekaaz","City":" Unayzah","Star_Rating":"0","Type_of_room":"Villa","Review_title":" Fabulous ","Longitude_x":43.9728182388,"Latitude_y":26.0352931086},{"Name":"Furnished Units in Tiba Arak","City":" Central Madinah, Al Madinah","Star_Rating":"0","Type_of_room":"One-Bedroom Apartment","Review_title":" Superb ","Longitude_x":39.6103523828,"Latitude_y":24.4713227952},{"Name":"AL Masarat Tower","City":" Al Shatiea, Jeddah","Star_Rating":"0","Type_of_room":"Apartment with Sea View","Review_title":" Good ","Longitude_x":39.1093515,"Latitude_y":21.6239617},{"Name":"OYO 381 Afg Aldurrah 1","City":" Butainiy\u0101t","Star_Rating":"3","Type_of_room":"One-Bedroom Apartment","Review_title":" Good ","Longitude_x":43.954533,"Latitude_y":26.386261},{"Name":"OYO 324 Green House Hotel Abha","City":" Abha","Star_Rating":"2","Type_of_room":"Standard Studio","Review_title":" Good ","Longitude_x":42.5146785546,"Latitude_y":18.205784902},{"Name":"OYO 176 Hotel Safari Al Hada","City":" Taif","Star_Rating":"2","Type_of_room":"Standard Studio","Review_title":" Review score ","Longitude_x":40.4047094285,"Latitude_y":21.2786550197},{"Name":"Khobar Palace Hotel","City":" Al Khobar","Star_Rating":"2","Type_of_room":"Standard Twin Room","Review_title":" Good ","Longitude_x":50.2007777989,"Latitude_y":26.2914256987},{"Name":"Golden Prince Hotel Al Rabwah","City":" Buraydah","Star_Rating":"2","Type_of_room":"Studio","Review_title":" Review score ","Longitude_x":43.972697854,"Latitude_y":26.3522382827},{"Name":"OYO 285 Masharef Furnished Units In","City":" Taif","Star_Rating":"2","Type_of_room":"One-Bedroom Apartment","Review_title":" Good ","Longitude_x":40.4141299645,"Latitude_y":21.2773482463},{"Name":"OYO 302 Maamoura","City":" Riyadh","Star_Rating":"2","Type_of_room":"Twin Studio","Review_title":" Review score ","Longitude_x":46.7868806591,"Latitude_y":24.813547861},{"Name":"Genac Hotel Yanbu","City":" Yanbu","Star_Rating":"2","Type_of_room":"Deluxe Double Room","Review_title":" Good ","Longitude_x":38.0545384332,"Latitude_y":24.0804432048},{"Name":"OYO 273 Star Yanbu Hotel Suites","City":" Yanbu","Star_Rating":"2","Type_of_room":"Standard Studio","Review_title":" Review score ","Longitude_x":38.0523646153,"Latitude_y":24.101716596},{"Name":"OYO 288 Diafati Residential Units","City":" Al Olayya, Al Khobar","Star_Rating":"2","Type_of_room":"Standard Studio","Review_title":" Good ","Longitude_x":50.1790417053,"Latitude_y":26.2932779665},{"Name":"tuline blue","City":" Al Jubail","Star_Rating":"2","Type_of_room":"Standard King Room","Review_title":" Good ","Longitude_x":49.6551240118,"Latitude_y":26.9800656516},{"Name":"OYO 165 Orchida Al Hamra","City":" Riyadh","Star_Rating":"2","Type_of_room":"Standard Studio Twin","Review_title":" Good ","Longitude_x":46.7186014252,"Latitude_y":24.6417112622},{"Name":"OYO 279 Joahrat Al Taif","City":" Taif","Star_Rating":"2","Type_of_room":"One-Bedroom Apartment","Review_title":" Very good ","Longitude_x":40.4104821948,"Latitude_y":21.2291247085},{"Name":"Odst Jeddah Hotel","City":" Jeddah","Star_Rating":"2","Type_of_room":"Double Room","Review_title":" Good ","Longitude_x":39.1935968399,"Latitude_y":21.4976471371},{"Name":"Tathleeth Palace","City":" Tathleeth","Star_Rating":"2","Type_of_room":"Standard Twin Room","Review_title":" Review score ","Longitude_x":43.5219338536,"Latitude_y":19.5418064995},{"Name":"Jazan Heart Hotel","City":" Jazan","Star_Rating":"2","Type_of_room":"Deluxe Room","Review_title":" Good ","Longitude_x":42.5582824827,"Latitude_y":16.8917638128},{"Name":"Aliqbal Hotel","City":" Al Khobar","Star_Rating":"2","Type_of_room":"Standard Double Room","Review_title":" Review score ","Longitude_x":50.2109017968,"Latitude_y":26.2830603823},{"Name":"Kayan Al Taif Hotel","City":" Taif","Star_Rating":"2","Type_of_room":"Superior King Room","Review_title":" Fabulous ","Longitude_x":40.4350820516,"Latitude_y":21.2945329817},{"Name":"ROSHAN ALdar Faqeeh Inn","City":" Makkah","Star_Rating":"2","Type_of_room":"Quadruple Room with Private Bathroom","Review_title":" Good ","Longitude_x":39.832025675,"Latitude_y":21.3851734111},{"Name":"Durrat Manzli ApartHotel","City":" Al Khobar","Star_Rating":"2","Type_of_room":"Deluxe Double Room","Review_title":" Very good ","Longitude_x":50.1851109748,"Latitude_y":26.1797336472},{"Name":"Hayat Alasayal Hotel","City":" Al Rawda, Jeddah","Star_Rating":"2","Type_of_room":"Deluxe Double Room","Review_title":" Good ","Longitude_x":39.158212,"Latitude_y":21.573095},{"Name":"Almudawah Hotel","City":" \u0162urayf","Star_Rating":"2","Type_of_room":"Budget Double Room","Review_title":" Very good ","Longitude_x":38.6643540859,"Latitude_y":31.6768565716},{"Name":"Royal El Naser Hotel","City":" Al Khobar","Star_Rating":"2","Type_of_room":"Budget Double Room","Review_title":" Review score ","Longitude_x":50.2004277706,"Latitude_y":26.2967250273},{"Name":"Swiss Blue 2","City":" Jeddah","Star_Rating":"2","Type_of_room":"Studio","Review_title":" Very good ","Longitude_x":39.242883,"Latitude_y":21.565599},{"Name":"Safwat Al Amal Hotel","City":" Al Hada","Star_Rating":"2","Type_of_room":"Studio with City View","Review_title":" Good ","Longitude_x":40.2977887984,"Latitude_y":21.3506366591},{"Name":"Mirage Hotel","City":" Jazan","Star_Rating":"2","Type_of_room":"Deluxe Twin Room","Review_title":" Good ","Longitude_x":42.5796836128,"Latitude_y":16.8870449648},{"Name":"Al Nimran Hotel","City":" Al Khobar","Star_Rating":"2","Type_of_room":"Deluxe Double or Twin Room","Review_title":" Review score ","Longitude_x":50.2116769552,"Latitude_y":26.3018912639},{"Name":"Shafa Abha Hotel","City":" Abha","Star_Rating":"2","Type_of_room":"Double or Twin Room","Review_title":" Review score ","Longitude_x":42.5206997037,"Latitude_y":18.1949281305},{"Name":"Al Hyatt Jeddah Continental Hotel","City":" Jeddah","Star_Rating":"2","Type_of_room":"Hyatt Twin Deluxe","Review_title":" Good ","Longitude_x":39.1921055317,"Latitude_y":21.528701746},{"Name":"OYO 326 Barjas Furnished Apartment","City":" Al Fan\u0101t\u012br","Star_Rating":"2","Type_of_room":"Standard Studio","Review_title":" Review score ","Longitude_x":49.5694719828,"Latitude_y":27.1321818143},{"Name":"Al Kamil Hotel","City":" Al K\u0101mil","Star_Rating":"2","Type_of_room":"Double or Twin Room","Review_title":" Fabulous ","Longitude_x":39.82786,"Latitude_y":22.306486},{"Name":"Golden Hotel","City":" Jeddah","Star_Rating":"2","Type_of_room":"Deluxe Double or Twin Room","Review_title":" Good ","Longitude_x":39.197217,"Latitude_y":21.490113},{"Name":"Le Meridien Al Hada","City":" Al Hada","Star_Rating":"2","Type_of_room":"Standard, Guest room, 2 Twin\/Single Bed(s)","Review_title":" Good ","Longitude_x":40.274913311,"Latitude_y":21.3591296503},{"Name":"Landmark Furnished Units","City":" Hera Street, Jeddah","Star_Rating":"2","Type_of_room":"Deluxe Room","Review_title":" Good ","Longitude_x":39.139955,"Latitude_y":21.608416},{"Name":"OYO 246 Hotel Hadeel Al Motamayezah","City":" Jeddah","Star_Rating":"2","Type_of_room":"Two-Bedroom Deluxe Apartment","Review_title":" Good ","Longitude_x":39.2230239067,"Latitude_y":21.5176508186},{"Name":"Al Battal Hotel","City":" Ajyad, Makkah","Star_Rating":"2","Type_of_room":"Twin Room","Review_title":" Good ","Longitude_x":39.8290362954,"Latitude_y":21.4177983393},{"Name":"Roaya Rawaabi Ajyad","City":" Ajyad, Makkah","Star_Rating":"2","Type_of_room":"Quadruple Room","Review_title":" Good ","Longitude_x":39.8291647946,"Latitude_y":21.409790327},{"Name":"The New Address Hotel","City":" Al Majmaah","Star_Rating":"2","Type_of_room":" Deluxe Studio Twin ","Review_title":" Good ","Longitude_x":45.3577512635,"Latitude_y":25.8892810673},{"Name":"OYO 307 Jubail Rose","City":" Al Jubayl","Star_Rating":"2","Type_of_room":"One-Bedroom Apartment","Review_title":" Good ","Longitude_x":49.656016,"Latitude_y":26.989835},{"Name":"Madinah Marriott Hotel","City":" Central Madinah, Al Madinah","Star_Rating":"1","Type_of_room":"Standard King Room, Guest room, 1 King","Review_title":" Review score ","Longitude_x":39.6032881737,"Latitude_y":24.4641233622},{"Name":"NASEEM","City":" Riyadh","Star_Rating":"0","Type_of_room":"Twin Room","Review_title":" Review score ","Longitude_x":46.8137418357,"Latitude_y":24.7355713489},{"Name":"Yamamah","City":" Al Yamamah, Riyadh","Star_Rating":"0","Type_of_room":"Twin Room","Review_title":" Review score ","Longitude_x":46.7160585523,"Latitude_y":24.601738498},{"Name":"REEMAL","City":" Riyadh","Star_Rating":"0","Type_of_room":"Small Room","Review_title":" Review score ","Longitude_x":46.8299581843,"Latitude_y":24.8707159104},{"Name":"Sunset fog","City":" Dammam","Star_Rating":"0","Type_of_room":"Double Room with Shared Bathroom","Review_title":" Review score ","Longitude_x":50.046496,"Latitude_y":26.434519},{"Name":"Al Batha2","City":" Riyadh","Star_Rating":"0","Type_of_room":"Budget Twin Room","Review_title":" Good ","Longitude_x":46.724649,"Latitude_y":24.619498},{"Name":"BATHA","City":" Riyadh","Star_Rating":"0","Type_of_room":"Basic Triple Room with Shared Bathroom","Review_title":" Review score ","Longitude_x":46.7228036402,"Latitude_y":24.6383403895},{"Name":"ALthuqbah 2 Males only","City":" Dhahran","Star_Rating":"0","Type_of_room":"Triple Room with Private Bathroom","Review_title":" Review score ","Longitude_x":50.1875161423,"Latitude_y":26.268627005},{"Name":"Masat Al Mohand Al Rouda","City":" Makkah","Star_Rating":"0","Type_of_room":"Deluxe Double Room","Review_title":" Review score ","Longitude_x":39.8504797183,"Latitude_y":21.4323866191},{"Name":"Al Eairy Apartments - Makkah 6","City":" Makkah","Star_Rating":"0","Type_of_room":"Double or Twin Room","Review_title":" Review score ","Longitude_x":39.8786759377,"Latitude_y":21.3696757582},{"Name":"Masaya 2 Furnished Units","City":" Al Olayya, Al Khobar","Star_Rating":"0","Type_of_room":"Studio","Review_title":" Review score ","Longitude_x":50.1872440428,"Latitude_y":26.2887813543},{"Name":"Al Eairy Apartments - Makkah 8","City":" Makkah","Star_Rating":"0","Type_of_room":"Double or Twin Room","Review_title":" Review score ","Longitude_x":39.8819443915,"Latitude_y":21.3694122745},{"Name":"Al Eairy Apartments - Al Baha 2","City":" Al Baha","Star_Rating":"0","Type_of_room":"Double or Twin Room","Review_title":" Review score ","Longitude_x":41.4486050606,"Latitude_y":20.0409316359},{"Name":"Flower","City":" Dammam","Star_Rating":"0","Type_of_room":"Twin Room with Private Bathroom","Review_title":" Good ","Longitude_x":50.088557,"Latitude_y":26.449741},{"Name":"Rose","City":" Dammam","Star_Rating":"0","Type_of_room":"Twin Room with Private External Bathroom","Review_title":" Good ","Longitude_x":50.088794,"Latitude_y":26.420683},{"Name":"Adamah","City":" Dammam","Star_Rating":"0","Type_of_room":"Apartment","Review_title":" Review score ","Longitude_x":50.0978896204,"Latitude_y":26.4343599827},{"Name":"Althuqbah","City":" Al Khobar","Star_Rating":"0","Type_of_room":"Studio Apartment","Review_title":" Review score ","Longitude_x":50.1940441132,"Latitude_y":26.2728385614},{"Name":"Al Eairy Furnished Apartments - Al Bahah 3","City":" Al Baha","Star_Rating":"0","Type_of_room":"Double Room","Review_title":" Review score ","Longitude_x":41.454412044,"Latitude_y":20.0155048516},{"Name":"Rose 2","City":" Dammam","Star_Rating":"0","Type_of_room":"One-Bedroom Apartment","Review_title":" Good ","Longitude_x":50.088557,"Latitude_y":26.449741},{"Name":"Zahrat Al Yassir Hotel","City":" Makkah","Star_Rating":"0","Type_of_room":"Standard Queen Room with Two Queen Beds","Review_title":" Good ","Longitude_x":39.8731867643,"Latitude_y":21.3907432224},{"Name":"Helm Jeddah Hotel Apartments","City":" Jeddah","Star_Rating":"0","Type_of_room":"One-Bedroom Apartment","Review_title":" Review score ","Longitude_x":39.2284172813,"Latitude_y":21.5111945953},{"Name":"Hidayah Al Yaser","City":" Makkah","Star_Rating":"0","Type_of_room":"Classic Triple Room","Review_title":" Review score ","Longitude_x":39.8704997894,"Latitude_y":21.3957079283},{"Name":"Al Eairy Furnished Apartments - Al Bahah 4","City":" Al Baha","Star_Rating":"0","Type_of_room":"Double Room","Review_title":" Review score ","Longitude_x":41.4654707909,"Latitude_y":20.0122713826},{"Name":"Masaya Furnished Apartments","City":" Al Olayya, Al Khobar","Star_Rating":"0","Type_of_room":"Studio","Review_title":" Review score ","Longitude_x":50.1834306121,"Latitude_y":26.2919553418},{"Name":"Al Eairy Apartments - Makkah 3","City":" Makkah","Star_Rating":"0","Type_of_room":"Standard Twin Room","Review_title":" Review score ","Longitude_x":39.8751112819,"Latitude_y":21.3693610345},{"Name":"Al Eairy Apartments - Makkah 4","City":" Makkah","Star_Rating":"0","Type_of_room":"Double or Twin Room","Review_title":" Review score ","Longitude_x":39.8819214106,"Latitude_y":21.3706249206},{"Name":"Al Eairy Apartments- Alqunfudah 3","City":" Al Qunfudhah","Star_Rating":"0","Type_of_room":"Double Room","Review_title":" Review score ","Longitude_x":41.081930995,"Latitude_y":19.1371407395},{"Name":"Al Eairy Apartments - Makkah 5","City":" Makkah","Star_Rating":"0","Type_of_room":"Double Room","Review_title":" Review score ","Longitude_x":39.9075418711,"Latitude_y":21.3518903145},{"Name":"Nzha","City":" Al Olayya, Al Khobar","Star_Rating":"0","Type_of_room":"One-Bedroom Apartment","Review_title":" Review score ","Longitude_x":50.1853752136,"Latitude_y":26.2916213844},{"Name":"Khaleej","City":" Dammam","Star_Rating":"0","Type_of_room":"Quadruple Room with Shared Bathroom","Review_title":" Review score ","Longitude_x":50.0961837173,"Latitude_y":26.448614843},{"Name":"Nuzul mena 109","City":" Riyadh","Star_Rating":"0","Type_of_room":"One-Bedroom Apartment","Review_title":" Review score ","Longitude_x":46.6231862224,"Latitude_y":24.5659621739},{"Name":"Almakan Hotel 103","City":" Riyadh","Star_Rating":"0","Type_of_room":"Studio","Review_title":" Review score ","Longitude_x":46.6819264367,"Latitude_y":24.849598601},{"Name":"OYO 341 Sorooh Taibah Furnished Apartments","City":" Qurish Street, Jeddah","Star_Rating":"0","Type_of_room":"Standard Studio","Review_title":" Review score ","Longitude_x":39.1648018174,"Latitude_y":21.6012259289},{"Name":"Durat Al Matar Apartment","City":" Jeddah","Star_Rating":"0","Type_of_room":"Studio (2 Adults)","Review_title":" Good ","Longitude_x":39.1631430387,"Latitude_y":21.6315399769},{"Name":"OYO 467 Al Dahya Hotel","City":" Abha","Star_Rating":"0","Type_of_room":"Standard Studio","Review_title":" Good ","Longitude_x":42.502773,"Latitude_y":18.216583},{"Name":"Al Eairy Furnished Apartments- Jeddah 1","City":" Palestine  Street, Jeddah","Star_Rating":"0","Type_of_room":"Double Room","Review_title":" Review score ","Longitude_x":39.1885860909,"Latitude_y":21.5310178287},{"Name":"Hodooa Al Masaken","City":" Riyadh","Star_Rating":"0","Type_of_room":"Superior One-Bedroom Apartment","Review_title":" Good ","Longitude_x":46.7648077011,"Latitude_y":24.8046378296},{"Name":"The Blue Bow","City":" Makkah","Star_Rating":"0","Type_of_room":"Deluxe Double Room","Review_title":" Review score ","Longitude_x":39.8637054395,"Latitude_y":21.3990908438},{"Name":"Al Eairy Apartment-Alqaseem 2","City":" Buraydah","Star_Rating":"0","Type_of_room":"Double Room","Review_title":" Review score ","Longitude_x":43.9715830609,"Latitude_y":26.3268128354},{"Name":"OYO 342 Dar Taibah Furnished Units","City":" Hera Street, Jeddah","Star_Rating":"0","Type_of_room":"Deluxe Apartment","Review_title":" Good ","Longitude_x":39.1770784557,"Latitude_y":21.6169404051},{"Name":"Al Eairy Furnished Apartments- Jeddah 2","City":" Jeddah","Star_Rating":"0","Type_of_room":"Small Double Room","Review_title":" Review score ","Longitude_x":39.2025255312,"Latitude_y":21.5336800139},{"Name":"Almakan Suites 111","City":" Riyadh","Star_Rating":"0","Type_of_room":"Studio Apartment","Review_title":" Review score ","Longitude_x":46.735891,"Latitude_y":24.59285},{"Name":"Al Eairy Apartments Jeddah 3","City":" Jeddah","Star_Rating":"0","Type_of_room":"Double or Twin Room","Review_title":" Review score ","Longitude_x":39.1682402682,"Latitude_y":21.6198850997},{"Name":"Towlan Hotel Suites 1","City":" Riyadh","Star_Rating":"0","Type_of_room":"One-Bedroom Apartment","Review_title":" Review score ","Longitude_x":46.8347248435,"Latitude_y":24.77548474},{"Name":"Al Eairy Apartments - Tabuk 1","City":" Tabuk","Star_Rating":"0","Type_of_room":"Double or Twin Room","Review_title":" Review score ","Longitude_x":36.5859424785,"Latitude_y":28.4091831483},{"Name":"Al Eairy Apartments - Jeddah 4","City":" Hera Street, Jeddah","Star_Rating":"0","Type_of_room":"Double or Twin Room","Review_title":" Review score ","Longitude_x":39.167729644,"Latitude_y":21.6136742587},{"Name":"Al Eairy Apartments - Tabuk 3","City":" Tabuk","Star_Rating":"0","Type_of_room":"Double Room","Review_title":" Review score ","Longitude_x":36.5300667286,"Latitude_y":28.3994981889},{"Name":"Al Eairy Apartments - Jeddah 6","City":" Jeddah","Star_Rating":"0","Type_of_room":"Double or Twin Room","Review_title":" Review score ","Longitude_x":39.2645305395,"Latitude_y":21.4064438081},{"Name":"Al Eairy Apartments - Jeddah 5","City":" Jeddah","Star_Rating":"0","Type_of_room":"Double or Twin Room","Review_title":" Review score ","Longitude_x":39.2905613944,"Latitude_y":21.4144246118},{"Name":"Wardah Al Khobar Apartment","City":" Al Aqrabeyah, Al Khobar","Star_Rating":"0","Type_of_room":"Standard Apartment","Review_title":" Review score ","Longitude_x":50.196121,"Latitude_y":26.295514},{"Name":"Amwaj Al Corniche Hotel Suites","City":" Al Khobar","Star_Rating":"0","Type_of_room":"Deluxe Double Room","Review_title":" Review score ","Longitude_x":50.2198298473,"Latitude_y":26.2942030702},{"Name":"Al Qimah Apartments","City":" Dammam","Star_Rating":"0","Type_of_room":"Standard Double Room with Shared Bathroom","Review_title":" Review score ","Longitude_x":50.082908,"Latitude_y":26.440642},{"Name":"Al Eairy Apartment-Riyadh 6","City":" Riyadh","Star_Rating":"0","Type_of_room":"Twin Room with Private External Bathroom","Review_title":" Review score ","Longitude_x":46.7279031873,"Latitude_y":24.6128314723},{"Name":"Al Eairy Apartments - Tabuk 6","City":" Tabuk","Star_Rating":"0","Type_of_room":"Double or Twin Room","Review_title":" Review score ","Longitude_x":36.5525972851,"Latitude_y":28.4025747959},{"Name":"The Pacific River","City":" Dammam","Star_Rating":"0","Type_of_room":"Studio Apartment","Review_title":" Review score ","Longitude_x":50.0964546204,"Latitude_y":26.4484347323},{"Name":"Al Eairy Apartments- Tabuk 2","City":" Tabuk","Star_Rating":"0","Type_of_room":"Double Room","Review_title":" Review score ","Longitude_x":36.5686905392,"Latitude_y":28.4198956834},{"Name":"OYO 315 Ramz Abha Hotel","City":" Abha","Star_Rating":"0","Type_of_room":"Standard Studio","Review_title":" Good ","Longitude_x":42.5091278817,"Latitude_y":18.2288329493},{"Name":"Al Eairy Apartments - Al Taif","City":" Taif","Star_Rating":"0","Type_of_room":"Double or Twin Room","Review_title":" Review score ","Longitude_x":40.41410923,"Latitude_y":21.279107402},{"Name":"Almakan Suites 102","City":" Riyadh","Star_Rating":"0","Type_of_room":"Studio","Review_title":" Review score ","Longitude_x":46.6272988915,"Latitude_y":24.7977374},{"Name":"Almakan Suites 101","City":" Riyadh","Star_Rating":"0","Type_of_room":"Studio","Review_title":" Review score ","Longitude_x":46.627436,"Latitude_y":24.797495},{"Name":"Almakan Almosafer Hotel 106","City":" Riyadh","Star_Rating":"0","Type_of_room":"Studio","Review_title":" Review score ","Longitude_x":46.7371189222,"Latitude_y":24.7876149831},{"Name":"Danar Hotel Apartments 5","City":" Al Olayya, Al Khobar","Star_Rating":"0","Type_of_room":"Double Room","Review_title":" Good ","Longitude_x":50.1763076708,"Latitude_y":26.2953232687},{"Name":"Al Eairy Apartments Al Riyad 5","City":" Riyadh","Star_Rating":"0","Type_of_room":"Double Room with Private Bathroom","Review_title":" Review score ","Longitude_x":46.7280614376,"Latitude_y":24.6128220231},{"Name":"Makarem Al Olaya Suites","City":" Al Olayya, Al Khobar","Star_Rating":"0","Type_of_room":"Twin Room","Review_title":" Good ","Longitude_x":50.1779508591,"Latitude_y":26.2938141839},{"Name":"Fadet Talla Residentials","City":" Buraydah","Star_Rating":"0","Type_of_room":"Studio Apartment","Review_title":" Very good ","Longitude_x":43.954329,"Latitude_y":26.395343},{"Name":"Al Eairy Apartments- Tabuk 4","City":" Tabuk","Star_Rating":"0","Type_of_room":"One-Bedroom Apartment","Review_title":" Review score ","Longitude_x":36.5242302418,"Latitude_y":28.3961548486},{"Name":"Al Quba Al Zahabia Furnished Units","City":" Riyadh","Star_Rating":"0","Type_of_room":"Standard Twin Room with Sofa","Review_title":" Good ","Longitude_x":46.6959382806,"Latitude_y":24.6593027298},{"Name":"Khobar Fantastic Furnished Apartments","City":" Al Khobar","Star_Rating":"0","Type_of_room":"Economy Triple Room with Shared Bathroom","Review_title":" Review score ","Longitude_x":50.2173588087,"Latitude_y":26.2934691038},{"Name":"Hana Yanbu Hotel Apartments","City":" Yanbu","Star_Rating":"0","Type_of_room":"Double Room with Private Bathroom","Review_title":" Good ","Longitude_x":38.00112158,"Latitude_y":24.13080871},{"Name":"OYO 286 Anhaar Al Taif","City":" Taif","Star_Rating":"0","Type_of_room":"Standard Studio","Review_title":" Review score ","Longitude_x":40.4397324125,"Latitude_y":21.2951647993},{"Name":"Leen Aparthotel","City":" Jeddah","Star_Rating":"0","Type_of_room":"One-Bedroom Apartment","Review_title":" Good ","Longitude_x":39.1382843675,"Latitude_y":21.5913184818},{"Name":"Marasi Al Madinah","City":" Al Olayya, Al Khobar","Star_Rating":"0","Type_of_room":"Studio","Review_title":" Good ","Longitude_x":50.1845115423,"Latitude_y":26.290940541},{"Name":"Mouj Elbahr Aparthotel","City":" Yanbu","Star_Rating":"0","Type_of_room":"One-Bedroom Apartment","Review_title":" Review score ","Longitude_x":37.9945313931,"Latitude_y":24.1353782508},{"Name":"Zwarah Hotel Suites","City":" Jeddah","Star_Rating":"0","Type_of_room":"One-Bedroom Apartment","Review_title":" Good ","Longitude_x":39.2194318771,"Latitude_y":21.5777551024},{"Name":"Najmat Sabbabah Furnished Units","City":" Hail","Star_Rating":"0","Type_of_room":"One-Bedroom Apartment","Review_title":" Good ","Longitude_x":41.6558067694,"Latitude_y":27.524046065},{"Name":"Ajwa 3","City":" Al Olayya, Al Khobar","Star_Rating":"0","Type_of_room":"Studio","Review_title":" Good ","Longitude_x":50.1776597981,"Latitude_y":26.2939668444},{"Name":"Al Eairy Apartments - Al Ahsa 1","City":" Al Ahsa","Star_Rating":"0","Type_of_room":"Double or Twin Room","Review_title":" Review score ","Longitude_x":49.5757546791,"Latitude_y":25.4162727903},{"Name":"Danat Apartments","City":" Al Olayya, Al Khobar","Star_Rating":"0","Type_of_room":"Deluxe Room (1 adult + 2 children)","Review_title":" Review score ","Longitude_x":50.1859399246,"Latitude_y":26.2914863507},{"Name":"Bahget Eljouf Furnished Apartment","City":" A\u0163 \u0162uwayr","Star_Rating":"0","Type_of_room":"One-Bedroom Apartment","Review_title":" Good ","Longitude_x":40.2046528459,"Latitude_y":29.9162922441},{"Name":"Fakher Yanbu II","City":" Yanbu","Star_Rating":"0","Type_of_room":"Double Room with Two Double Beds","Review_title":" Review score ","Longitude_x":38.1067246757,"Latitude_y":24.0717024034},{"Name":"Amana AlFakhera Furnished Units 1","City":" Jeddah","Star_Rating":"0","Type_of_room":"Two-Bedroom Apartment","Review_title":" Review score ","Longitude_x":39.1396173835,"Latitude_y":21.6159085651},{"Name":"Golden Abha","City":" Abha","Star_Rating":"0","Type_of_room":"Deluxe King Room","Review_title":" Review score ","Longitude_x":42.5106917771,"Latitude_y":18.2086076892},{"Name":"Dar Alataf Furnished Apartments","City":" Hera Street, Jeddah","Star_Rating":"0","Type_of_room":"Double Room","Review_title":" Review score ","Longitude_x":39.1679054868,"Latitude_y":21.6151707428},{"Name":"Al Eairy Apartments- Hael 1","City":" Hail","Star_Rating":"0","Type_of_room":"Double Room","Review_title":" Review score ","Longitude_x":41.7044261012,"Latitude_y":27.5037369589},{"Name":"OYO 344 Almibkhara Althahbia","City":" Al Hamra, Jeddah","Star_Rating":"0","Type_of_room":"Standard Studio","Review_title":" Good ","Longitude_x":39.1651117802,"Latitude_y":21.5168206795},{"Name":"Diafah ApartHotel","City":" Al Khobar","Star_Rating":"0","Type_of_room":"Twin Room","Review_title":" Superb ","Longitude_x":50.1924026839,"Latitude_y":26.2090042496},{"Name":"Assal Hail Hotel Apartments","City":" Hail","Star_Rating":"0","Type_of_room":"Double Room","Review_title":" Good ","Longitude_x":41.67504251,"Latitude_y":27.4840722536},{"Name":"Layali Al Tamayoz 6","City":" Hera Street, Jeddah","Star_Rating":"0","Type_of_room":"One-Bedroom Apartment","Review_title":" Review score ","Longitude_x":39.158585,"Latitude_y":21.613369},{"Name":"Layali Al Tamayoz 4","City":" Al Salamah, Jeddah","Star_Rating":"0","Type_of_room":"Twin Room","Review_title":" Good ","Longitude_x":39.1602301598,"Latitude_y":21.5941005587},{"Name":"Al Eairy Apartments - Al Nairyah 1","City":" Al Nairyah","Star_Rating":"0","Type_of_room":"Double Room","Review_title":" Review score ","Longitude_x":48.47184062,"Latitude_y":27.4741136267},{"Name":"OYO 212 Zahrat Al Jal","City":" Taif","Star_Rating":"0","Type_of_room":"Deluxe Studio","Review_title":" Review score ","Longitude_x":40.4311179959,"Latitude_y":21.3051578708},{"Name":"Al Akhawain Furnished Units","City":" Jeddah","Star_Rating":"0","Type_of_room":"Deluxe Double Room","Review_title":" Review score ","Longitude_x":39.2109634727,"Latitude_y":21.5710174632},{"Name":"Manazel Al Hamra Apartment 2","City":" Buraydah","Star_Rating":"0","Type_of_room":"Deluxe Double Room","Review_title":" Very good ","Longitude_x":43.9648430049,"Latitude_y":26.3673900263},{"Name":"Al Eairy Apartment- Hael 4","City":" Hail","Star_Rating":"0","Type_of_room":"Twin Room","Review_title":" Review score ","Longitude_x":41.7056531866,"Latitude_y":27.4998518957},{"Name":"Al Eairy Apartments - Al-Nairyah 2","City":" Al Nairyah","Star_Rating":"0","Type_of_room":"Double or Twin Room","Review_title":" Review score ","Longitude_x":48.4702527523,"Latitude_y":27.47166726},{"Name":"Al Eairy Apartments- Alqaseem 3","City":" Buraydah","Star_Rating":"0","Type_of_room":"Apartment","Review_title":" Review score ","Longitude_x":43.9510980248,"Latitude_y":26.3690734308},{"Name":"Al Eairy Apartment-Alqaseem 1","City":" Buraydah","Star_Rating":"0","Type_of_room":"Twin Room","Review_title":" Review score ","Longitude_x":43.9523988962,"Latitude_y":26.3462919216},{"Name":"Al Eairy Apartments- Riyadh 3","City":" Al Aziziyah, Riyadh","Star_Rating":"0","Type_of_room":"Double or Twin Room","Review_title":" Review score ","Longitude_x":46.794853764,"Latitude_y":24.5959582363},